{
  "metadata": {
    "businessType": "website agencies in",
    "location": "fes",
    "totalResults": 74,
    "scrapedAt": "2025-08-18T19:23:05.962Z",
    "scrapedAtLocal": "8/18/2025, 8:23:05 PM",
    "isAutoSave": false
  },
  "results": [
    {
      "name": "Appbox",
      "phone": "0690-402020",
      "website": "",
      "emails": [],
      "location": "30050, Maroc, Rue de Libye, Fes 30000"
    },
    {
      "name": "Webmarko",
      "phone": "0661-511183",
      "website": "",
      "emails": [],
      "location": "fes"
    },
    {
      "name": "Fesweb",
      "phone": "05356-51358",
      "website": "https://www.fesweb.net",
      "emails": [],
      "location": "fes"
    },
    {
      "name": "Fes Marketing Service Agence de Communication",
      "phone": "05356-45103",
      "website": "https://fes-marketing.net",
      "emails": [
        "commercial@fes-marketing.net"
      ],
      "location": "Fes Marketing Service Agence de Communication, cinéma astor, Bureau 206 2 eme étage Bureaux Noor Avenue slaoui et rue hussine khaddar centre ville à coté de, Fès 30000"
    },
    {
      "name": "NL-Digital AGENCY FES",
      "phone": "0532-088373",
      "website": "https://nl-digitalagency.com",
      "emails": [],
      "location": "NL-Digital AGENCY FES, Bureau Moulay Slimane, 9 Ave St Louis, Fès 30000"
    },
    {
      "name": "Digit-On agence digital à Fes",
      "phone": "05356-95908",
      "website": "https://digiton.ma",
      "emails": [
        "contact@digiton.ma"
      ],
      "location": "Bur 26, 6 Situé en face du café le Six, Résidence Mohamed 6, Av. Mohammed Bahnini"
    },
    {
      "name": "Hilal Digital - Agence Digital Marketing Fès",
      "phone": "0661-607311",
      "website": "https://hilaldigital.com",
      "emails": [
        "contact@hilaldigital.com",
        "monemail@gmail.com"
      ],
      "location": "fes"
    },
    {
      "name": "Mureso Agence de communication et de Marketing digital a Fes | Communication digitale FES",
      "phone": "0621-530201",
      "website": "https://mureso.com",
      "emails": [],
      "location": "fes"
    },
    {
      "name": "isweb",
      "phone": "0532-042566",
      "website": "",
      "emails": [],
      "location": "Bureau 4, 420 RUE LAIMOUNE, ETG 2, Fes 30000"
    },
    {
      "name": "Devpub Solution : Fès Marketing digital Service & Communication Agence de marketing digitale à Fès",
      "phone": "0663-351816",
      "website": "https://www.devpub-solution.com",
      "emails": [
        "contact@devpub-solution.com"
      ],
      "location": "Espace RAYANE 2, 7Etage, Lotissement Prestigia Lot FC08, Champs de course"
    },
    {
      "name": "Arti web",
      "phone": "0532-432066",
      "website": "https://artiweb.ma",
      "emails": [
        "contact@artiweb.ma"
      ],
      "location": "fes"
    },
    {
      "name": "Inventis",
      "phone": "05356-21314",
      "website": "http://inventis.ma",
      "emails": [
        "contact@inventis.ma"
      ],
      "location": "fes"
    },
    {
      "name": "YO Digital - Agence Marketing Digital",
      "phone": "0661-659353",
      "website": "https://yodigital.ma",
      "emails": [],
      "location": "YO Digital - Agence Marketing Digital, à côté de la salle Nausika, 16 Av. Iben Athir, Fès 30000"
    },
    {
      "name": "Agence Web GetDigital Fes",
      "phone": "0668-564233",
      "website": "https://getdigital.ma",
      "emails": [],
      "location": "Agence Web GetDigital Fes, espace El imane, Bureau numéro 16, 3eme étage"
    },
    {
      "name": "Metagroup création site web fés",
      "phone": "0708-023048",
      "website": "https://metagroup.ma",
      "emails": [],
      "location": "fes"
    },
    {
      "name": "FUTUR DEVELOPPEMENT",
      "phone": "05359-31973",
      "website": "",
      "emails": [],
      "location": "fes"
    },
    {
      "name": "Screenday",
      "phone": "0532-001024",
      "website": "https://screenday.ma",
      "emails": [],
      "location": "6EM ÉTAGE , BUREAU N 35, RÉSIDENCE LYOUBIA, ALLAL BEN ABDELLAH"
    },
    {
      "name": "Rythme Media Fes - Création site web Fes - Agence web Fes",
      "phone": "0605-462993",
      "website": "https://www.rythmedia.com/agence-web-fes",
      "emails": [
        "contact@rythmedia.com"
      ],
      "location": "Rythme Media Fes - Création site web Fes - Agence web Fes, résidence salma 2, Av. Mohammed V, Fès 30000"
    },
    {
      "name": "Marweb",
      "phone": "0646-166236",
      "website": "https://marweb.com",
      "emails": [],
      "location": "Marweb, bureaux zineb, Rue Allal Loudiyi, Fès 30000"
    },
    {
      "name": "Medinaclick",
      "phone": "0688-780770",
      "website": "",
      "emails": [],
      "location": "fes"
    },
    {
      "name": "DUPA MEDIA - Agence de Marketing Digital",
      "phone": "0662-415542",
      "website": "https://www.dupamedia.com",
      "emails": [
        "contact@dupamedia.com"
      ],
      "location": "fes"
    },
    {
      "name": "Fouad Web",
      "phone": "0675-942010",
      "website": "https://fouadweb.com",
      "emails": [],
      "location": "fes"
    },
    {
      "name": "Creative Web",
      "phone": "0687-919443",
      "website": "",
      "emails": [],
      "location": "fes"
    },
    {
      "name": "DELTA WEB",
      "phone": "",
      "website": "https://deltawebhost.com",
      "emails": [],
      "location": "fes"
    },
    {
      "name": "Imag'in Creative : Agence Web, Publicité et Communication",
      "phone": "05356-53985",
      "website": "",
      "emails": [],
      "location": "Bureaux Ibn Yassin à côté de l, Institut francais, Ave Lalla Hasnae, Fès 30050"
    },
    {
      "name": "Weboost",
      "phone": "0663-740143",
      "website": "https://www.weboost.ma",
      "emails": [
        "Contact@weboost.ma",
        "contact@weboost.ma"
      ],
      "location": "N69,2 , Avenue Saint Louis, Ain chkf"
    },
    {
      "name": "infomark",
      "phone": "0661-602412",
      "website": "https://infomark.ma",
      "emails": [
        "contact@infomark.ma"
      ],
      "location": "fes"
    },
    {
      "name": "Orange Ben Souda",
      "phone": "",
      "website": "",
      "emails": [],
      "location": "Orange Ben Souda, Lotissement Belair 5 Magasin 1 Bensouda, Saiss, Fes"
    },
    {
      "name": "Studio Web",
      "phone": "0699-417196",
      "website": "",
      "emails": [],
      "location": "fes"
    },
    {
      "name": "Labowebtech - Agence Web et Communication Digitale au Maroc",
      "phone": "0661-758182",
      "website": "https://labowebtech.com",
      "emails": [],
      "location": "fes"
    },
    {
      "name": "Référencement Maroc SEO SARL",
      "phone": "05356-16233",
      "website": "https://marocseo.com",
      "emails": [],
      "location": "fes"
    },
    {
      "name": "Luxacom Agence web et photographie",
      "phone": "0660-009444",
      "website": "",
      "emails": [],
      "location": "fes"
    },
    {
      "name": "Agence web fes appbox",
      "phone": "0661-638362",
      "website": "",
      "emails": [],
      "location": "Cooking class fes, Lot ahlan magasin, n3 route imouzer, Fès 30000"
    },
    {
      "name": "Agence web SINESI",
      "phone": "0617-777728",
      "website": "https://www.sinesi.net",
      "emails": [
        "contact@sinesi.net"
      ],
      "location": "Agence web SINESI, 17 Lot Mernissi Av Hassan II, Av. Ain S'men, Fès 30000"
    },
    {
      "name": "Bleu marketing",
      "phone": "0664-396096",
      "website": "https://bleumarketing.net",
      "emails": [],
      "location": "fes"
    },
    {
      "name": "NassimSEO Création Site Web",
      "phone": "0669-947515",
      "website": "https://nassimseo.com/creation-site-web-maroc",
      "emails": [
        "contact@nassimseo.com"
      ],
      "location": "NR 411, TGHAT, LOTS RIAD LAYMOUN, Fes 30100"
    },
    {
      "name": "AYMD Agency",
      "phone": "0644-334136",
      "website": "https://aymdagency.com",
      "emails": [
        "contact@aymdagency.com"
      ],
      "location": "2ème étage, AYMD Agency, Bureaux wilaya, n"
    },
    {
      "name": "Digitech Assistance",
      "phone": "0532-060403",
      "website": "",
      "emails": [],
      "location": "fes"
    },
    {
      "name": "Création site web Maroc fés",
      "phone": "0690-759105",
      "website": "https://metagroup.ma",
      "emails": [],
      "location": "fes"
    },
    {
      "name": "MAROCRANK",
      "phone": "0664-817088",
      "website": "https://www.marocrank.com",
      "emails": [
        "contact@marocrank.com",
        "support@marocrank.com"
      ],
      "location": "fes"
    },
    {
      "name": "Wajedweb",
      "phone": "0687-888789",
      "website": "http://wajedweb.ma",
      "emails": [
        "contact@wajedweb.com",
        "contact@wajedweb.ma"
      ],
      "location": "fes"
    },
    {
      "name": "Webeasy",
      "phone": "",
      "website": "",
      "emails": [],
      "location": "fes"
    },
    {
      "name": "Altek Technologies",
      "phone": "05357-31094",
      "website": "https://www.altek.ma",
      "emails": [],
      "location": "ETG5 Bureau 34, Altek Technologies, 75 Rue Al Hoceima, Fès 30000"
    },
    {
      "name": "Digital Growth Powered by Ethila Company",
      "phone": "0689-188735",
      "website": "",
      "emails": [],
      "location": "fes"
    },
    {
      "name": "Digital Développement",
      "phone": "0603-282812",
      "website": "https://www.digitaldeveloppement.net",
      "emails": [
        "contact@digitaldeveloppement.net"
      ],
      "location": "fes"
    },
    {
      "name": "Cabinet ABIsoft",
      "phone": "0660-972646",
      "website": "https://www.abisoft.ma",
      "emails": [],
      "location": "Cabinet ABIsoft, Rue Abdelkhalek Tores, Printemps bureau, 1ère Étage Bureau N"
    },
    {
      "name": "NewDev Maroc",
      "phone": "05356-50757",
      "website": "https://www.newdevmaroc.com",
      "emails": [
        "contact@newdevmaroc.com"
      ],
      "location": "fes"
    },
    {
      "name": "Buzzmark",
      "phone": "0612-618830",
      "website": "https://buzzmark.ma",
      "emails": [
        "buzzmarkagency@gmail.com"
      ],
      "location": "Buzzmark, ESPACE JNAN, V.N ETG 3, BUREAU 9 Avenue Ahmed Chaouki"
    },
    {
      "name": "JM DIGITAL",
      "phone": "0606-450118",
      "website": "https://jaime-digital.com",
      "emails": [
        "contact@jaime-digital.com"
      ],
      "location": "fes"
    },
    {
      "name": "Ben Art Studio",
      "phone": "0707-079708",
      "website": "https://benartstudio.com",
      "emails": [
        "contact@benartstudio.com"
      ],
      "location": "fes"
    },
    {
      "name": "Vyconsulting",
      "phone": "0631-600468",
      "website": "https://vyconsulting-group.com",
      "emails": [],
      "location": "3ème étage, Bureau Al Abrar, Bd Abdellah Chafchaouni, Fes 30050"
    },
    {
      "name": "Développeur web freelance",
      "phone": "0677-201041",
      "website": "https://yassinezine.com",
      "emails": [],
      "location": "fes"
    },
    {
      "name": "DIGITAL VALLEY",
      "phone": "0620-693022",
      "website": "https://digitalvalley.ma",
      "emails": [],
      "location": "fes"
    },
    {
      "name": "Ecole Polytechnique des Génies ",
      "phone": "05356-21865",
      "website": "https://epg.ma",
      "emails": [
        "contact@epg.ma"
      ],
      "location": "fes"
    },
    {
      "name": "Fès",
      "phone": "",
      "website": "https://communedefes.ma",
      "emails": [],
      "location": "fes"
    },
    {
      "name": "R-N MÉDIA لتقديم الخدمات الالكترونية",
      "phone": "0656-301075",
      "website": "",
      "emails": [],
      "location": "fes"
    },
    {
      "name": "Basha Group",
      "phone": "05357-33204",
      "website": "https://basha.ma",
      "emails": [
        "a.mounir@basha.ma",
        "o.salma@basha.ma",
        "d.ibtissame@basha.ma"
      ],
      "location": "fes"
    },
    {
      "name": "Digialla",
      "phone": "",
      "website": "",
      "emails": [],
      "location": "fes"
    },
    {
      "name": "ISGA Fès : Ecole de management / Ecole d'ingénieurs",
      "phone": "0661-486859",
      "website": "https://isga.ma",
      "emails": [],
      "location": "fes"
    },
    {
      "name": "Comunica la solution",
      "phone": "0669-070475",
      "website": "https://comunicasolution.com",
      "emails": [
        "contact@comunicasolution.com"
      ],
      "location": "fes"
    },
    {
      "name": "D Media",
      "phone": "0660-448877",
      "website": "https://dmedia.ma",
      "emails": [
        "contact@dmedia.ma",
        "Contact@dmedia.ma"
      ],
      "location": "D Media, Bureau Allal Ben Abdellah, Bureau 38 Ave Allal Ben Abdellah, Fès 30000"
    },
    {
      "name": "Bab Ftouh",
      "phone": "",
      "website": "https://ofppt.ma",
      "emails": [],
      "location": "fes"
    },
    {
      "name": "MARKETING CONFORT",
      "phone": "0612-140666",
      "website": "https://marketingconfort.com",
      "emails": [
        "belmaitinabil@gmail.com",
        "contact@marketingconfort.com"
      ],
      "location": "3eme etage, MARKETING CONFORT, atlas n 22 lotissement elidrissia immeuble el andalouss, Fès 30000"
    },
    {
      "name": "Smart Action",
      "phone": "0679-602866",
      "website": "https://smartaction.ma",
      "emails": [
        "webmaster@smartaction.ma"
      ],
      "location": "Rue Assilah, Moulins Idrissia, Bureau Andalouse,5 ème étage N41"
    },
    {
      "name": "CreaCom : Agence de communication digitale",
      "phone": "0635-594544",
      "website": "https://creacom.ma",
      "emails": [],
      "location": "International Private School of Technology, Rue Al khalil, Av Ibn Athir, Fès 30040"
    },
    {
      "name": "LAMARKETCOM DIGITAL AGENCY",
      "phone": "0532-128960",
      "website": "https://www.lamarketcom.com",
      "emails": [
        "%20projet@lamarketcom.com",
        "projet@lamarketcom.com"
      ],
      "location": "6 ème étage, Immeuble EL Youbiya, Ave Allal Ben Abdellah, Fès 30050"
    },
    {
      "name": "Creative Circle Morocco",
      "phone": "0660-897703",
      "website": "",
      "emails": [],
      "location": "Atlas, Résidence Dakhla, 34 av Tétouan, Fès 30010"
    },
    {
      "name": "PUSH - Agence Digitale Maroc",
      "phone": "",
      "website": "https://agencepush.com",
      "emails": [],
      "location": "fes"
    },
    {
      "name": "Digital Concept Maroc",
      "phone": "0673-920595",
      "website": "https://digitalconcept.ma",
      "emails": [
        "digital.concept.maroc@gmail.com"
      ],
      "location": "Etage 2 Bureau 15, Digital Concept Maroc, Espace bureau Bel air a coté Clinique rais, Fès 30000"
    },
    {
      "name": "MEKS Digital",
      "phone": "",
      "website": "https://meks.ma",
      "emails": [
        "iamdigital@meksdigital.com"
      ],
      "location": "fes"
    },
    {
      "name": "We Raise Group",
      "phone": "0772-228902",
      "website": "https://weraisemedia.com",
      "emails": [
        "contact@weraisemedia.com"
      ],
      "location": "fes"
    },
    {
      "name": "Digiben",
      "phone": "0661-463956",
      "website": "",
      "emails": [],
      "location": "fes"
    },
    {
      "name": "InnovaPlus | Agence de communication FES",
      "phone": "0651-966939",
      "website": "",
      "emails": [],
      "location": "fes"
    },
    {
      "name": "agence de communication fes​ et photographie - Location Sonorisation",
      "phone": "0654-453992",
      "website": "",
      "emails": [],
      "location": "fes"
    }
  ]
}