{
  "metadata": {
    "businessType": "dentist in",
    "location": "marrakech",
    "totalResults": 141,
    "scrapedAt": "2025-08-17T17:13:18.979Z",
    "scrapedAtLocal": "8/17/2025, 6:13:18 PM"
  },
  "results": [
    {
      "name": "Clinique dentaire Moqadem HafÃ§a Hollywood smile, Implant, prothÃ¨se, Facette, Blanchiment urgence dentaire, dentiste Marrakech",
      "phone": "05244-37470",
      "website": "https://esthetiquedentairemarrakech.com",
      "emails": [],
      "location": "2Ã©me Ã©tage, Madani Plaza, 180 Bd Abdelkrim Al Khattabi, Marrakech 40000"
    },
    {
      "name": "Davinci Dental Clinic - Dentiste Ã  Gueliz Marrakech",
      "phone": "05244-22172",
      "website": "https://davincidental.ma",
      "emails": [
        "webmaster@davincidental.ma"
      ],
      "location": "2 N3, Miramas, Bd Abdelkrim Al Khattabi, Marrakech 40000"
    },
    {
      "name": "Centre Dentaire Gueliz- Marrakech.",
      "phone": "05244-32987",
      "website": "https://www.mondentiste.ma",
      "emails": [],
      "location": "marrakech"
    },
    {
      "name": "URGENCE DENTAIRE MARRAKECH 24/24 7/7",
      "phone": "05244-57090",
      "website": "http://urgencedentairemarrakech.com",
      "emails": [],
      "location": "imm chourouk apt 03 etage 02, Hay CHARAF , 554, Marrakech 40000"
    },
    {
      "name": "Cabinet dentaire Dr. Benabad Yassine",
      "phone": "05244-57090",
      "website": "",
      "emails": [],
      "location": "1er Ã©tage, 82 Avenue Hassan 2, Gueliz marrakech, Marrakesh 40000"
    },
    {
      "name": "Marrakech Dental Clinic",
      "phone": "05244-30984",
      "website": "http://marrakechdentalclinic.com",
      "emails": [],
      "location": "marrakech"
    },
    {
      "name": "Dr Rajouani Nabila ",
      "phone": "0700-097616",
      "website": "",
      "emails": [],
      "location": "marrakech"
    },
    {
      "name": "Marrakech",
      "phone": "",
      "website": "https://ville-marrakech.ma",
      "emails": [],
      "location": "marrakech"
    },
    {
      "name": "Docteur Chirurgien Dentiste El Merini Adnane (Harmony clinic)",
      "phone": "0525-090909",
      "website": "http://harmonyclinic.ma",
      "emails": [],
      "location": "marrakech"
    },
    {
      "name": "Centre dentaire Ocre (DR FAHD IDRISSI AATOUF)EsthÃ©tique dentaire",
      "phone": "0669-338224",
      "website": "https://ocredentalcenter.ma",
      "emails": [],
      "location": "M, App 2, Immeuble, Rue Errouda"
    },
    {
      "name": "CENTRE DENTAIRE INTERNATIONAL DE MARRAKECH",
      "phone": "05244-20975",
      "website": "https://www.centre-dentaire-marrakech.com",
      "emails": [],
      "location": "CENTRE DENTAIRE INTERNATIONAL DE MARRAKECH, Centre affaire taleeb 120 avenue Mohamed V 4 Ã©me etage, 120 Av. Mohammed V, Marrakech 40000"
    },
    {
      "name": "Marrakech dentist (Dr. CHAD Younes)",
      "phone": "05244-21962",
      "website": "",
      "emails": [],
      "location": "angle Avenue Yacoub El Mansour et, Rue Loubnane, Marrakesh 40000, Morocco"
    },
    {
      "name": "Centre Dentaire Plaza Docteur Nadour Aicha",
      "phone": "05244-23358",
      "website": "http://centredentaireplaza.ma",
      "emails": [],
      "location": "immeuble D1, 3 Ã¨me Ã©tage, bureau 6 Pl. 16 Novembre, Marrakesh 40000"
    },
    {
      "name": "ğ——ğ—¼ğ—°ğ˜ğ—²ğ˜‚ğ—¿ ğ—–ğ—µğ—¶ğ—¿ğ˜‚ğ—¿ğ—´ğ—¶ğ—²ğ—» ğ——ğ—²ğ—»ğ˜ğ—¶ğ˜€ğ˜ğ—² ğ—–ğ—›ğ—”ğ—¥ğ—”ğ—™ ğ—œğ—ºğ—®ğ—»ğ—² - ğ——ğ—²ğ—»ğ˜ğ—¶ğ˜€ğ˜ğ—² ğ— ğ—®ğ—¿ğ—¿ğ—®ğ—¸ğ—²ğ—°ğ—µ",
      "phone": "05243-89622",
      "website": "https://www.e-rdv.ma/rendez-vous-avec/centre-dentaire-la-geoconda-dr-imane-charaf/3125886/567649.html",
      "emails": [],
      "location": "marrakech"
    },
    {
      "name": "Docteur Chirurgien Dentiste Saadi Mouad (Cabinet)",
      "phone": "05244-57901",
      "website": "",
      "emails": [],
      "location": "marrakech"
    },
    {
      "name": "Centre Dentaire Benjelloun",
      "phone": "0664-028273",
      "website": "",
      "emails": [],
      "location": "Imm A1 , bureau n 5 Ang av Allal el fassi et, Bd 11 Janvier, Marrakech 40000"
    },
    {
      "name": "Docteur Chirurgien Dentiste TAOUFIK LAHLOU",
      "phone": "05244-39120",
      "website": "https://drlahloutaoufik.com",
      "emails": [],
      "location": "marrakech"
    },
    {
      "name": "KOUTOUBIA DENTAL CLINIC DR OULD NANA NADA",
      "phone": "05244-58205",
      "website": "",
      "emails": [],
      "location": "marrakech"
    },
    {
      "name": "Docteur Chirurgien Dentiste El Guernaoui Siham (Direct Du Docteur)",
      "phone": "05244-34146",
      "website": "",
      "emails": [],
      "location": "marrakech"
    },
    {
      "name": "Dr. AARAB - Centre Dentaire EDEN",
      "phone": "0525-521152",
      "website": "",
      "emails": [],
      "location": "1er Ã©tage, apt N2, Immeuble Ghalia, N59 Bd el Mansour Eddahbi"
    },
    {
      "name": "Aura dental center",
      "phone": "0525-277776",
      "website": "https://auradentalcenter.com",
      "emails": [],
      "location": "marrakech"
    },
    {
      "name": "Clinique dentaire Moqadem HafÃ§a Hollywood smile, Implant, prothÃ¨se, Facette, Blanchiment urgence dentaire, dentiste Marrakech",
      "phone": "05244-37470",
      "website": "https://esthetiquedentairemarrakech.com",
      "emails": [],
      "location": "2Ã©me Ã©tage, Madani Plaza, 180 Bd Abdelkrim Al Khattabi, Marrakech 40000"
    },
    {
      "name": "URGENCE DENTAIRE MARRAKECH 24/24 7/7",
      "phone": "05244-57090",
      "website": "http://urgencedentairemarrakech.com",
      "emails": [],
      "location": "N 42, Al Bek, Rue Rouda, Marrakesh 40000"
    },
    {
      "name": "Hivernage Dental Center - Dr. Ibtissam EL OMARI",
      "phone": "05244-36773",
      "website": "https://nfcmaroc.com/ibtissam-el-omari",
      "emails": [
        "hivernagedentalcenter@gmail.com"
      ],
      "location": "Centre d'Affaires les Orangers, Angle Rue Aboubaker Seddiq et, Rue Al Adarissa, Marrakech 40000"
    },
    {
      "name": "Laser Dental Clinic / clinique dentaire Marrakech",
      "phone": "0532-052969",
      "website": "https://laserdentalclinic.ma",
      "emails": [],
      "location": "1er Ã©tage appt7, rÃ©sidence salim, 79 Av. des Forces ArmÃ©es Royales, FÃ¨s 30000"
    },
    {
      "name": "Centre Dentaire SAMSAH. Dentiste Marrakech. Urgence Dentaire Marrakech 24/7. Radio Panoramique Marrakech",
      "phone": "0708-057363",
      "website": "",
      "emails": [],
      "location": "imm chourouk apt 03 etage 02, Hay CHARAF , 554, Marrakech 40000"
    },
    {
      "name": "Centre Dentaire SMILE WELL Marrakech",
      "phone": "0628-384601",
      "website": "https://smilewell.ma",
      "emails": [
        "cdsmilewell@gmail.com"
      ],
      "location": "2Ã¨me Ã©tage, bureau 7, Centre Dentaire SMILE WELL Marrakech, centre d"
    },
    {
      "name": "Cabinet dentaire Dr. Benabad Yassine",
      "phone": "05244-57090",
      "website": "",
      "emails": [],
      "location": "1er Ã©tage, 82 Avenue Hassan 2, Gueliz marrakech, Marrakesh 40000"
    },
    {
      "name": "Docteur Chirurgien Dentiste El Merini Adnane (Harmony clinic)",
      "phone": "0525-090909",
      "website": "http://harmonyclinic.ma",
      "emails": [],
      "location": "marrakech"
    },
    {
      "name": "Marrakech Dental Clinic",
      "phone": "05244-30984",
      "website": "http://marrakechdentalclinic.com",
      "emails": [
        "marrakechdentalclinic@gmail.com",
        "mdc.casablanca@gmail.com"
      ],
      "location": "marrakech"
    },
    {
      "name": "dentiste marrakech (Dr. CHAD Younes)",
      "phone": "05244-21962",
      "website": "",
      "emails": [],
      "location": "marrakech"
    },
    {
      "name": "ğ——ğ—¼ğ—°ğ˜ğ—²ğ˜‚ğ—¿ ğ—–ğ—µğ—¶ğ—¿ğ˜‚ğ—¿ğ—´ğ—¶ğ—²ğ—» ğ——ğ—²ğ—»ğ˜ğ—¶ğ˜€ğ˜ğ—² ğ—–ğ—›ğ—”ğ—¥ğ—”ğ—™ ğ—œğ—ºğ—®ğ—»ğ—² - ğ——ğ—²ğ—»ğ˜ğ—¶ğ˜€ğ˜ğ—² ğ— ğ—®ğ—¿ğ—¿ğ—®ğ—¸ğ—²ğ—°ğ—µ",
      "phone": "05243-89622",
      "website": "https://www.e-rdv.ma/rendez-vous-avec/centre-dentaire-la-geoconda-dr-imane-charaf/3125886/567649.html",
      "emails": [],
      "location": "marrakech"
    },
    {
      "name": "Cabinet Dentaire Dr. DASSOULI HASSAN Mhamid Marrakech",
      "phone": "0525-221101",
      "website": "https://cabinetdrdassoulihassan.com",
      "emails": [],
      "location": "APPT.02, Cabinet Dentaire Dr. DASSOULI HASSAN Mhamid Marrakech, N 1811 LOT MAATALLAH-ETG.02, Marrakech 40150"
    },
    {
      "name": "Clinique Dentaire Targa Marrakech",
      "phone": "05240-21919",
      "website": "https://www.cliniquedentairetarga.com",
      "emails": [
        "contact@cliniquedentairetarga.com"
      ],
      "location": "marrakech"
    },
    {
      "name": "Docteur Chirurgien Dentiste Laouinate Mustapha (Cabinet)",
      "phone": "05244-46018",
      "website": "",
      "emails": [],
      "location": "marrakech"
    },
    {
      "name": "Centre Dentaire Gueliz- Marrakech.",
      "phone": "05244-32987",
      "website": "https://www.mondentiste.ma",
      "emails": [
        "contact@mondentiste.ma"
      ],
      "location": "marrakech"
    },
    {
      "name": "Dr. AARAB - Centre Dentaire EDEN",
      "phone": "0525-521152",
      "website": "",
      "emails": [],
      "location": "1er Ã©tage, apt N2, Immeuble Ghalia, N59 Bd el Mansour Eddahbi"
    },
    {
      "name": "Centre dentaire menara garden",
      "phone": "05244-23879",
      "website": "",
      "emails": [],
      "location": "1 er Ã©tage, Centre dentaire menara garden, Nr 17 Rue el Iraq, Marrakech 40020"
    },
    {
      "name": "Dr Lamia Zaki - Le Marrakech Centre Dentaire",
      "phone": "05244-49102",
      "website": "",
      "emails": [],
      "location": "2Ã¨me Ã©tage, Centre d'affaire Maryam, Ibn Oualid, N"
    },
    {
      "name": "CENTRE DENTAIRE INTERNATIONAL DE MARRAKECH",
      "phone": "05244-20975",
      "website": "https://www.centre-dentaire-marrakech.com",
      "emails": [],
      "location": "CENTRE DENTAIRE INTERNATIONAL DE MARRAKECH, Centre affaire taleeb 120 avenue Mohamed V 4 Ã©me etage, 120 Av. Mohammed V, Marrakech 40000"
    },
    {
      "name": "Davinci Dental Clinic - Dentiste Ã  Gueliz Marrakech",
      "phone": "05244-22172",
      "website": "https://davincidental.ma",
      "emails": [
        "webmaster@davincidental.ma"
      ],
      "location": "2 N3, Miramas, Bd Abdelkrim Al Khattabi, Marrakech 40000"
    },
    {
      "name": "Abou Ankira Sahar (Dentiste)",
      "phone": "05244-44217",
      "website": "",
      "emails": [],
      "location": "1, Rue Ibn Khaldoun Place Koutoubia Marrakech-Tensift-Al Haouz, Marrakech, Marrakech 40000"
    },
    {
      "name": "Clinique dentaire Moqadem HafÃ§a Hollywood smile, Implant, prothÃ¨se, Facette, Blanchiment urgence dentaire, dentiste Marrakech",
      "phone": "05244-37470",
      "website": "https://esthetiquedentairemarrakech.com",
      "emails": [],
      "location": "2Ã©me Ã©tage, Madani Plaza, 180 Bd Abdelkrim Al Khattabi, Marrakech 40000"
    },
    {
      "name": "Centre Dentaire SMILE WELL Marrakech",
      "phone": "0628-384601",
      "website": "https://smilewell.ma",
      "emails": [
        "cdsmilewell@gmail.com"
      ],
      "location": "2Ã¨me Ã©tage, bureau 7, Centre Dentaire SMILE WELL Marrakech, centre d"
    },
    {
      "name": "Clinique dentaire Moqadem HafÃ§a Hollywood smile, Implant, prothÃ¨se, Facette, Blanchiment urgence dentaire, dentiste Marrakech",
      "phone": "0608-202088",
      "website": "https://esthetiquedentairemarrakech.com",
      "emails": [],
      "location": "N 42, Al Bek, Rue Rouda, Marrakesh 40000"
    },
    {
      "name": "Cabinet dentaire Dr fadoua iklimi marrakech",
      "phone": "0525-147766",
      "website": "https://dentistmarrakech.com",
      "emails": [
        "contact@dentistmarrakech.com"
      ],
      "location": "marrakech"
    },
    {
      "name": "Centre Dentaire SAMSAH. Dentiste Marrakech. Urgence Dentaire Marrakech 24/7. Radio Panoramique Marrakech",
      "phone": "0708-057363",
      "website": "",
      "emails": [],
      "location": "imm chourouk apt 03 etage 02, Hay CHARAF , 554, Marrakech 40000"
    },
    {
      "name": "Centre dentaire chorouq Dr El Bouyousfi Chorouq (Dentiste)",
      "phone": "05244-49595",
      "website": "",
      "emails": [],
      "location": "marrakech"
    },
    {
      "name": "ğ——ğ—¼ğ—°ğ˜ğ—²ğ˜‚ğ—¿ ğ—–ğ—µğ—¶ğ—¿ğ˜‚ğ—¿ğ—´ğ—¶ğ—²ğ—» ğ——ğ—²ğ—»ğ˜ğ—¶ğ˜€ğ˜ğ—² ğ—–ğ—›ğ—”ğ—¥ğ—”ğ—™ ğ—œğ—ºğ—®ğ—»ğ—² - ğ——ğ—²ğ—»ğ˜ğ—¶ğ˜€ğ˜ğ—² ğ— ğ—®ğ—¿ğ—¿ğ—®ğ—¸ğ—²ğ—°ğ—µ",
      "phone": "05243-89622",
      "website": "https://www.e-rdv.ma/rendez-vous-avec/centre-dentaire-la-geoconda-dr-imane-charaf/3125886/567649.html",
      "emails": [],
      "location": "marrakech"
    },
    {
      "name": "Cabinet dentaire Majorelle Dr Sahnoun Salma",
      "phone": "05242-92973",
      "website": "https://sahnounsalma.com",
      "emails": [
        "drsahnounsalma@gmail.com"
      ],
      "location": "IMM MOUTAC, Cabinet dentaire Majorelle Dr Sahnoun Salma, 26 AV ALLAL EL FASSI, Marrakech 40000"
    },
    {
      "name": "dentiste marrakech (Dr. CHAD Younes)",
      "phone": "05244-21962",
      "website": "",
      "emails": [],
      "location": "marrakech"
    },
    {
      "name": "Cabinet d'Orthodontie Exclusive, Dr. DAMI Khalid",
      "phone": "05244-21756",
      "website": "https://orthomarrakech.com",
      "emails": [],
      "location": "3Ã©me Ã©tage, RÃ©sidence Majorelle, Angle Allal El Fassi, Au dessus du Laboratoire Majorelle"
    },
    {
      "name": "Marrakech Dental Center â€“ Dr Hind NADIM â€“ Dentiste Marrakech : Hollywood smile implants facettes blanchiment urgences",
      "phone": "05243-00028",
      "website": "https://marrakechdental.com",
      "emails": [],
      "location": "Boulevard allal el fassi, centre d'affaires al anouar, 4 eme etage , bureau 35"
    },
    {
      "name": "Agbi Khalil (Dentiste)",
      "phone": "05244-41916",
      "website": "",
      "emails": [],
      "location": "marrakech"
    },
    {
      "name": "SMILE MARRAKECH DENTAL",
      "phone": "05243-41036",
      "website": "https://marrakechsmile.com",
      "emails": [
        "contact@marrakechsmile.com"
      ],
      "location": "2Ã©me Ã©tage, Madani Plaza, 180 Bd Abdelkrim Al Khattabi, Marrakech 40000"
    },
    {
      "name": "Docteur Chirurgien Dentiste El Merini Adnane (Harmony clinic)",
      "phone": "0525-090909",
      "website": "http://harmonyclinic.ma",
      "emails": [],
      "location": "marrakech"
    },
    {
      "name": "Marrakech Dental Clinic",
      "phone": "05244-30984",
      "website": "http://marrakechdentalclinic.com",
      "emails": [
        "marrakechdentalclinic@gmail.com",
        "mdc.casablanca@gmail.com"
      ],
      "location": "marrakech"
    },
    {
      "name": "Docteur Chirurgien Dentiste Hadid Mustapha (Cabinet)",
      "phone": "05244-05294",
      "website": "",
      "emails": [],
      "location": "marrakech"
    },
    {
      "name": "Centre Dentaire BAB AGHMAT",
      "phone": "0639-200247",
      "website": "",
      "emails": [],
      "location": "appartement 151, Centre Dentaire BAB AGHMAT, boulvard Bahmad bab aghmat immeuble al khairia, Marrakech 40000"
    },
    {
      "name": "Essaadi Moulay Youssef (Dentiste)",
      "phone": "05244-38018",
      "website": "",
      "emails": [],
      "location": "marrakech"
    },
    {
      "name": "Centre Dentaire Bennani Marrakech",
      "phone": "05243-07075",
      "website": "",
      "emails": [],
      "location": "marrakech"
    },
    {
      "name": "Centre Dentaire SYBA Dr.Youssef LAHBILA",
      "phone": "0525-127575",
      "website": "",
      "emails": [],
      "location": "3, 1er Ã©tage N 2, 55 Lotissement, Marrakech 40000"
    },
    {
      "name": "Docteur Chirurgien Dentiste Hakkou Khalid",
      "phone": "05244-08402",
      "website": "",
      "emails": [],
      "location": "marrakech"
    },
    {
      "name": "Centre Dentaire Docteur El Alaoui Adil",
      "phone": "0666-839336",
      "website": "",
      "emails": [],
      "location": "marrakech"
    },
    {
      "name": "Cabinet Dentaire Dr Youssef Driouch",
      "phone": "05244-01058",
      "website": "",
      "emails": [],
      "location": "marrakech"
    },
    {
      "name": "Cabinet Dentaire DR. chraibi Kaadoud Abdelouahab",
      "phone": "0700-758568",
      "website": "",
      "emails": [],
      "location": "Imm B, 1er Etage, App 6 RÃ©sidence Anas Majorelle, Bd Prince Moulay Abdellah"
    },
    {
      "name": "Docteur Ismail MESSAOUDI (Dentiste)",
      "phone": "05244-04646",
      "website": "",
      "emails": [],
      "location": "marrakech"
    },
    {
      "name": "CABINET Dr CHKILI Fethallah",
      "phone": "05244-47711",
      "website": "https://dentiste-marrakech.net",
      "emails": [
        "denteeth@clinic.com",
        "smilepure@clinic.com",
        "marrakechdentiste@gmail.com"
      ],
      "location": "Chkili Fethallah, 3 Bis, Syba Iii, 1"
    },
    {
      "name": "Centre dentaire Whiteland Dr Sary Yassamine",
      "phone": "05244-04053",
      "website": "",
      "emails": [],
      "location": "marrakech"
    },
    {
      "name": "Cabinet Dentaire Imane El Maataoui",
      "phone": "0646-630970",
      "website": "",
      "emails": [],
      "location": "Km 9, devant station total, Route Ourika, Marrakech 40160"
    },
    {
      "name": "Cabinet dentaire - Dr Fadoua OUICH",
      "phone": "0679-656283",
      "website": "",
      "emails": [],
      "location": "2Ã¨me Ã©tage, Devant l'arrondissement 6 de police, syba, 52 Quartier industriel"
    },
    {
      "name": "Cabinet dentaire Dr. Benabad Yassine",
      "phone": "05244-57090",
      "website": "",
      "emails": [],
      "location": "1er Ã©tage, 82 Avenue Hassan 2, Gueliz marrakech, Marrakesh 40000"
    },
    {
      "name": "Ksb Dental",
      "phone": "05244-04312",
      "website": "",
      "emails": [],
      "location": "Ksb Dental, 326 Lotissement Syba Iii Bp 6052 Sidi Youssef Ben Ali Iii, Marra, Marrakech 40000"
    },
    {
      "name": "Docteur Chirurgien Dentiste Laouinate Mustapha (Cabinet)",
      "phone": "05244-46018",
      "website": "",
      "emails": [],
      "location": "marrakech"
    },
    {
      "name": "CENTRE DENTAIRE EL MANSOURI",
      "phone": "0625-277799",
      "website": "",
      "emails": [],
      "location": "APPARTEMENT 8, CENTRE DENTAIRE EL MANSOURI, IMMEUBLE. 5 AVENUE. ALLAL EL FASSI, Marrakech 40000"
    },
    {
      "name": "Centre Dentaire BAB AGHMAT",
      "phone": "0639-200247",
      "website": "",
      "emails": [],
      "location": "appartement 151, Centre Dentaire BAB AGHMAT, boulvard Bahmad bab aghmat immeuble al khairia, Marrakech 40000"
    },
    {
      "name": "Aboueljihad Aziz (Cabinet De Prothese Dentaire)",
      "phone": "05244-54051",
      "website": "",
      "emails": [],
      "location": "marrakech"
    },
    {
      "name": "Clinique dentaire Moqadem HafÃ§a Hollywood smile, Implant, prothÃ¨se, Facette, Blanchiment urgence dentaire, dentiste Marrakech",
      "phone": "05244-37470",
      "website": "https://esthetiquedentairemarrakech.com",
      "emails": [],
      "location": "2Ã©me Ã©tage, Madani Plaza, 180 Bd Abdelkrim Al Khattabi, Marrakech 40000"
    },
    {
      "name": "Cabinet dentaire Dr fadoua iklimi marrakech",
      "phone": "0525-147766",
      "website": "https://dentistmarrakech.com",
      "emails": [
        "contact@dentistmarrakech.com"
      ],
      "location": "marrakech"
    },
    {
      "name": "Cabinet Dentaire Dr Alkoussi Jihane",
      "phone": "05243-30999",
      "website": "",
      "emails": [],
      "location": "marrakech"
    },
    {
      "name": "Ø¯ÙƒØªÙˆØ± Ø®Ù†Ø´ÙŠØ´ Ø­Ù…Ø²Ø© (Ø·Ø¨ÙŠØ¨ Ø£Ø³Ù†Ø§Ù†) Cabinet Dentaire Dr Khnichich Hamza",
      "phone": "05291-22992",
      "website": "",
      "emails": [],
      "location": "2eme Ã©tage, Derb Saguia NR544, Bd du golf, Marrakesh 40000"
    },
    {
      "name": "Cabinet Dentaire Massira",
      "phone": "05243-43436",
      "website": "",
      "emails": [],
      "location": "marrakech"
    },
    {
      "name": "Dounia Dental Center par Dr. Dounia TARBALOUTI",
      "phone": "05244-97235",
      "website": "",
      "emails": [],
      "location": "D483 5eme Ã©tage bureau 17, Dounia Dental Center par Dr. Dounia TARBALOUTI, Massira Business Center, Massira 1 A"
    },
    {
      "name": "Cabinet dentaire Dr MABROUR Yassin",
      "phone": "05243-41926",
      "website": "",
      "emails": [],
      "location": "marrakech"
    },
    {
      "name": "Dr Bouhtit Mohamed (Chirurgien Dentiste)",
      "phone": "05244-90020",
      "website": "",
      "emails": [],
      "location": "marrakech"
    },
    {
      "name": "Dr Cherkaoui Jaouad Adnane dentiste massira",
      "phone": "05244-96868",
      "website": "",
      "emails": [],
      "location": "marrakech"
    },
    {
      "name": "Chirurgien Dentiste Dr. Achraf Belkamel",
      "phone": "0693-859302",
      "website": "",
      "emails": [],
      "location": "Appt 7, Chirurgien Dentiste Dr. Achraf Belkamel, Massira 1b RÃ©sidence Hicham 2, Marrakesh"
    },
    {
      "name": "THE DENTIST",
      "phone": "05244-37470",
      "website": "https://esthetiquedentairemarrakech.com",
      "emails": [],
      "location": "2Ã©me Ã©tage, Madani Plaza, 180 Bd Abdelkrim Al Khattabi, Marrakech 40000"
    },
    {
      "name": "Cabinet dentaire docteur kamihi Mohamed amine",
      "phone": "0631-362826",
      "website": "",
      "emails": [],
      "location": "marrakech"
    },
    {
      "name": "Bright smile centre dentaire",
      "phone": "05243-47198",
      "website": "",
      "emails": [],
      "location": "N 399 - ETG.01, N 1B, Massira 03, Marrakech 40140"
    },
    {
      "name": "Cabinet Dentaire Docteur Soukaina El Jouali",
      "phone": "0600-300019",
      "website": "",
      "emails": [],
      "location": "marrakech"
    },
    {
      "name": "Centre d'orthodontie Dr. Dany Hicham",
      "phone": "05243-94215",
      "website": "",
      "emails": [],
      "location": "66 av Dakhla, rÃ©sidence Fatima Zahra , Massira 1, Marrakesh 40000"
    },
    {
      "name": "Cabinet de chirurgie dentaire BOULANOUAR",
      "phone": "05244-94738",
      "website": "",
      "emails": [],
      "location": "marrakech"
    },
    {
      "name": "Dr Hajar Ouafir",
      "phone": "05243-49081",
      "website": "",
      "emails": [],
      "location": "marrakech"
    },
    {
      "name": "Centre Dentaire SAMSAH. Dentiste Marrakech. Urgence Dentaire Marrakech 24/7. Radio Panoramique Marrakech",
      "phone": "05244-37470",
      "website": "https://esthetiquedentairemarrakech.com",
      "emails": [],
      "location": "2Ã©me Ã©tage, Madani Plaza, 180 Bd Abdelkrim Al Khattabi, Marrakech 40000"
    },
    {
      "name": "Cabinet Dentaire Dr Mohamed Otmane Hassani",
      "phone": "05244-97946",
      "website": "",
      "emails": [],
      "location": "marrakech"
    },
    {
      "name": "Cabinet dentaire Dr Othmani Rania",
      "phone": "05243-44330",
      "website": "",
      "emails": [],
      "location": "1er Ã©tage, Massira 1B, N 785, Marrakech"
    },
    {
      "name": "Cabinet de Chirurgie Dentaire Dr. El Haouzi SouhaÃ¯la",
      "phone": "0606-406454",
      "website": "",
      "emails": [],
      "location": "marrakech"
    },
    {
      "name": "Centre dentaire Ennaji - chirurgien dentiste-",
      "phone": "05243-42423",
      "website": "http://dr-ennaji-abdelkebir.com",
      "emails": [
        "drennajiabdelkebir@gmail.com"
      ],
      "location": "Massira 1 C ,avenue al kantara centre d'affaire massira 1 er Ã©tage, N 6,Marrakech"
    },
    {
      "name": "Docteur Chirurgien Dentiste Hanich Amal (Cabinet)",
      "phone": "05243-48379",
      "website": "",
      "emails": [],
      "location": "marrakech"
    },
    {
      "name": "Clinique dentaire Moqadem HafÃ§a Hollywood smile, Implant, prothÃ¨se, Facette, Blanchiment urgence dentaire, dentiste Marrakech",
      "phone": "05244-37470",
      "website": "https://esthetiquedentairemarrakech.com",
      "emails": [],
      "location": "2Ã©me Ã©tage, Madani Plaza, 180 Bd Abdelkrim Al Khattabi, Marrakech 40000"
    },
    {
      "name": "Clinique dentaire Moqadem HafÃ§a Hollywood smile, Implant, prothÃ¨se, Facette, Blanchiment urgence dentaire, dentiste Marrakech",
      "phone": "05244-37470",
      "website": "https://esthetiquedentairemarrakech.com",
      "emails": [],
      "location": "2Ã©me Ã©tage, Madani Plaza, 180 Bd Abdelkrim Al Khattabi, Marrakech 40000"
    },
    {
      "name": "Centre Dentaire SAMSAH. Dentiste Marrakech. Urgence Dentaire Marrakech 24/7. Radio Panoramique Marrakech",
      "phone": "0708-057363",
      "website": "",
      "emails": [],
      "location": "imm chourouk apt 03 etage 02, Hay CHARAF , 554, Marrakech 40000"
    },
    {
      "name": "Cabinet dentaire Le beau sourire",
      "phone": "05243-04343",
      "website": "",
      "emails": [],
      "location": "Avenue Ibn jabrane amerchich, centre d affaire Lina, imm D, 40070"
    },
    {
      "name": "Cabinet dentaire Dr ZINEB AMHARECH",
      "phone": "0779-348363",
      "website": "",
      "emails": [],
      "location": "immeuble 6, Cabinet dentaire Dr ZINEB AMHARECH, La Citrine A bureau 5, Marrakech 40000"
    },
    {
      "name": "Centre dentaire white pearl Dr Chebbo Rached",
      "phone": "05243-00036",
      "website": "",
      "emails": [],
      "location": "deuxieme etage, centre assafa 3, Rte de Casablanca, Marrakech 40000"
    },
    {
      "name": "Cabinet dentaire Dr Samoudi Houda (Marrakech )",
      "phone": "05242-92168",
      "website": "",
      "emails": [],
      "location": "marrakech"
    },
    {
      "name": "CABINET DENTAIRE DR AKRIM",
      "phone": "05242-93522",
      "website": "",
      "emails": [],
      "location": "marrakech"
    },
    {
      "name": "Cabinet Dentaire Dr.Hind LAKHRISSI",
      "phone": "05243-04096",
      "website": "",
      "emails": [],
      "location": "marrakech"
    },
    {
      "name": "SMILE MARRAKECH DENTAL",
      "phone": "05243-41036",
      "website": "https://marrakechsmile.com",
      "emails": [
        "contact@marrakechsmile.com"
      ],
      "location": "2Ã©me Ã©tage, Madani Plaza, 180 Bd Abdelkrim Al Khattabi, Marrakech 40000"
    },
    {
      "name": "Marrakech Dental Center â€“ Dr Hind NADIM â€“ Dentiste Marrakech : Hollywood smile implants facettes blanchiment urgences",
      "phone": "05243-00028",
      "website": "https://marrakechdental.com",
      "emails": [
        "contact@marrakechdental.com"
      ],
      "location": "Boulevard allal el fassi, centre d'affaires al anouar, 4 eme etage , bureau 35"
    },
    {
      "name": "Docteur Chirurgien Dentiste Hanich Amal (Cabinet)",
      "phone": "05243-48379",
      "website": "",
      "emails": [],
      "location": "marrakech"
    },
    {
      "name": "Almas dental center",
      "phone": "",
      "website": "",
      "emails": [],
      "location": "marrakech"
    },
    {
      "name": "Dentiste Marrakech | Chirurgien Dentiste | Cabinet Dentaire Marrakech - Dr. Sabria Ait Maatallah",
      "phone": "05243-03834",
      "website": "",
      "emails": [],
      "location": "marrakech"
    },
    {
      "name": "Cabinet dentaire Benyaich",
      "phone": "05244-46533",
      "website": "https://dr-salem-benyaich.com",
      "emails": [
        "cabinetdentairebenyaich@gmail.com"
      ],
      "location": "2 , 3 eme Ã©tage app, au dessus de cafÃ© la Marlette, rÃ©sidence Nour"
    },
    {
      "name": "Cabinet Dr Nadia atlassi",
      "phone": "05240-55200",
      "website": "",
      "emails": [],
      "location": "N 3 1 er Ã©tage, immeuble E al Boustane, 2 Bd Allal Al Fassi, Marrakech 40000"
    },
    {
      "name": "Cabinet dentaire Dr Meriem Aboud",
      "phone": "0698-307272",
      "website": "https://drmeriemaboud.com",
      "emails": [
        "cabinetdentaireaboud@gmail.com"
      ],
      "location": "Cabinet dentaire Dr Meriem Aboud, imm Adam Plaza, 48 Rue Yougoslavie, Marrakech 40000"
    },
    {
      "name": "Dr. HANICH Amal",
      "phone": "0698-566310",
      "website": "",
      "emails": [],
      "location": "marrakech"
    },
    {
      "name": "Marrakech Dental Clinic",
      "phone": "05244-30984",
      "website": "http://marrakechdentalclinic.com",
      "emails": [
        "marrakechdentalclinic@gmail.com",
        "mdc.casablanca@gmail.com"
      ],
      "location": "marrakech"
    },
    {
      "name": "Clinique Dentaire Targa Marrakech",
      "phone": "05240-21919",
      "website": "https://www.cliniquedentairetarga.com",
      "emails": [
        "contact@cliniquedentairetarga.com"
      ],
      "location": "marrakech"
    },
    {
      "name": "CENTRE DENTAIRE By Dr Ait Essi Abderrahim",
      "phone": "0666-838556",
      "website": "http://dentistmarrakechmysmile.com",
      "emails": [
        "centredentairemysmile@gmail.com"
      ],
      "location": "marrakech"
    },
    {
      "name": "Clinique dentaire Moqadem HafÃ§a Hollywood smile, Implant, prothÃ¨se, Facette, Blanchiment urgence dentaire, dentiste Marrakech",
      "phone": "05244-37470",
      "website": "https://esthetiquedentairemarrakech.com",
      "emails": [],
      "location": "2Ã©me Ã©tage, Madani Plaza, 180 Bd Abdelkrim Al Khattabi, Marrakech 40000"
    },
    {
      "name": "Centre Dentaire SAMSAH. Dentiste Marrakech. Urgence Dentaire Marrakech 24/7. Radio Panoramique Marrakech",
      "phone": "0708-057363",
      "website": "",
      "emails": [],
      "location": "imm chourouk apt 03 etage 02, Hay CHARAF , 554, Marrakech 40000"
    },
    {
      "name": "Cabinet dentaire Dr fadoua iklimi marrakech",
      "phone": "0525-147766",
      "website": "https://dentistmarrakech.com",
      "emails": [
        "contact@dentistmarrakech.com"
      ],
      "location": "marrakech"
    },
    {
      "name": "Dr. El Mohtarim Sara- chirurgien dentiste",
      "phone": "05244-21924",
      "website": "https://www.dabadoc.com/ma/dentiste/marrakech/sara-el-mohrarim",
      "emails": [],
      "location": "1 Ã‰TAGE, RÃ‰S. AL OUSRA APPART, 1 Bd Mohamed VI, Marrakech 40000"
    },
    {
      "name": "Cabinet Dentaire Dr. DASSOULI HASSAN Mhamid Marrakech",
      "phone": "0525-221101",
      "website": "https://cabinetdrdassoulihassan.com",
      "emails": [],
      "location": "APPT.02, Cabinet Dentaire Dr. DASSOULI HASSAN Mhamid Marrakech, N 1811 LOT MAATALLAH-ETG.02, Marrakech 40150"
    },
    {
      "name": "Cabinet Dentaire Mhamid Dr Oussama NAHI, dentiste mhamid",
      "phone": "0525-217248",
      "website": "",
      "emails": [],
      "location": "Cabinet Dentaire Mhamid Dr Oussama NAHI, dentiste mhamid, Mhamid, Immeuble 14 Av. Omar Al Khayam"
    },
    {
      "name": "Cabinet dentaire Le beau sourire",
      "phone": "05243-04343",
      "website": "",
      "emails": [],
      "location": "Avenue Ibn jabrane amerchich, centre d affaire Lina, imm D, 40070"
    },
    {
      "name": "dr lahlou salma",
      "phone": "0600-677808",
      "website": "",
      "emails": [],
      "location": "marrakech"
    },
    {
      "name": "Elboukfaoui Hicham ( Chirurgien Dentiste)",
      "phone": "05244-34699",
      "website": "",
      "emails": [],
      "location": "Av. Hassan Ii Ang. Khalid Bnou Loualid Resid. Ham, Marrakech-Tensift-Al, Haouz, Marrakech"
    },
    {
      "name": "Cabinet dentaire Al'Izdihar",
      "phone": "05242-00224",
      "website": "",
      "emails": [],
      "location": "Immeuble Al Manar, 1Ã¨re Ã©tage, appart N 4, Al'Izdihar"
    },
    {
      "name": "Jaich dental clinic",
      "phone": "05298-75334",
      "website": "https://dentisto.ma/rendez-vous/docteurs/drjaich-meryem-1426",
      "emails": [],
      "location": "N390 1 er Ã©tage, hay mohamadi, centre ibn nafiss, Allal el fassi"
    },
    {
      "name": "Cabinet dentaire Dr. Benabad Yassine",
      "phone": "05244-57090",
      "website": "",
      "emails": [],
      "location": "1er Ã©tage, 82 Avenue Hassan 2, Gueliz marrakech, Marrakesh 40000"
    },
    {
      "name": "Aimad-Eddine Soumia",
      "phone": "05244-35127",
      "website": "",
      "emails": [],
      "location": "marrakech"
    },
    {
      "name": "cabinet d esthetique dentaire dr nassim hadoui",
      "phone": "05244-90349",
      "website": "",
      "emails": [],
      "location": "appt 4 Ã©tage 1, cabinet d esthetique dentaire dr nassim hadoui, RESIDENCE.SARA Av. Dakhla Massira 1D, Marrakech 40140"
    },
    {
      "name": "Cabinet Dentaire Dr Imane EL FADLI - Chirurgien Dentiste Orthodentiste Blanchiment / Ø·Ø¨ÙŠØ¨Ø© Ø§Ø³Ù†Ø§Ù†",
      "phone": "05243-71648",
      "website": "https://drimanedentiste.com",
      "emails": [],
      "location": "1263, 2Ã¨me Ã©tage, rue Oujda, Lot Maatallah"
    },
    {
      "name": "Bendaoud Mohamed (Dentiste)",
      "phone": "05244-31060",
      "website": "",
      "emails": [],
      "location": "marrakech"
    },
    {
      "name": "Cabinet dentaire Majorelle Dr Sahnoun Salma",
      "phone": "05242-92973",
      "website": "https://sahnounsalma.com",
      "emails": [
        "drsahnounsalma@gmail.com"
      ],
      "location": "IMM MOUTAC, Cabinet dentaire Majorelle Dr Sahnoun Salma, 26 AV ALLAL EL FASSI, Marrakech 40000"
    },
    {
      "name": "SMILE MARRAKECH DENTAL",
      "phone": "05243-41036",
      "website": "https://marrakechsmile.com",
      "emails": [
        "contact@marrakechsmile.com"
      ],
      "location": "2Ã©me Ã©tage, Madani Plaza, 180 Bd Abdelkrim Al Khattabi, Marrakech 40000"
    },
    {
      "name": "Centre Dentaire El Wassy",
      "phone": "0600-902217",
      "website": "https://dentisteamarrakech.com",
      "emails": [
        "rdv@dentisteamarrakech.com"
      ],
      "location": "1er Ã©tage Appartement 01, Centre Dentaire El Wassy, Avenue Guemassa , M'hamid 01"
    },
    {
      "name": "Dentiste zohair",
      "phone": "05243-60206",
      "website": "",
      "emails": [],
      "location": "marrakech"
    }
  ]
}