{
  "metadata": {
    "businessType": "dentist in",
    "location": "marrakech",
    "totalResults": 85,
    "scrapedAt": "2025-08-17T17:27:25.773Z",
    "scrapedAtLocal": "8/17/2025, 6:27:25 PM"
  },
  "results": [
    {
      "name": "Clinique dentaire Moqadem Hafça Hollywood smile, Implant, prothèse, Facette, Blanchiment urgence dentaire, dentiste Marrakech",
      "phone": "05244-37470",
      "website": "https://esthetiquedentairemarrakech.com",
      "emails": [],
      "location": "2éme étage, Madani Plaza, 180 Bd Abdelkrim Al Khattabi, Marrakech 40000"
    },
    {
      "name": "Davinci Dental Clinic - Dentiste à Gueliz Marrakech",
      "phone": "05244-22172",
      "website": "https://davincidental.ma",
      "emails": [
        "webmaster@davincidental.ma"
      ],
      "location": "2 N3, Miramas, Bd Abdelkrim Al Khattabi, Marrakech 40000"
    },
    {
      "name": "Centre Dentaire Gueliz- Marrakech.",
      "phone": "05244-32987",
      "website": "https://www.mondentiste.ma",
      "emails": [
        "contact@mondentiste.ma"
      ],
      "location": "marrakech"
    },
    {
      "name": "URGENCE DENTAIRE MARRAKECH 24/24 7/7",
      "phone": "05244-57090",
      "website": "http://urgencedentairemarrakech.com",
      "emails": [],
      "location": "imm chourouk apt 03 etage 02, Hay CHARAF , 554, Marrakech 40000"
    },
    {
      "name": "Marrakech Dental Clinic",
      "phone": "05244-30984",
      "website": "http://marrakechdentalclinic.com",
      "emails": [],
      "location": "marrakech"
    },
    {
      "name": "Dr Rajouani Nabila ",
      "phone": "0700-097616",
      "website": "",
      "emails": [],
      "location": "marrakech"
    },
    {
      "name": "Marrakech",
      "phone": "",
      "website": "https://ville-marrakech.ma",
      "emails": [
        "info@ville-marrakech.ma"
      ],
      "location": "marrakech"
    },
    {
      "name": "Docteur Chirurgien Dentiste El Merini Adnane (Harmony clinic)",
      "phone": "0525-090909",
      "website": "http://harmonyclinic.ma",
      "emails": [],
      "location": "marrakech"
    },
    {
      "name": "Centre dentaire Ocre (DR FAHD IDRISSI AATOUF)Esthétique dentaire",
      "phone": "0669-338224",
      "website": "https://ocredentalcenter.ma",
      "emails": [],
      "location": "M, App 2, Immeuble, Rue Errouda"
    },
    {
      "name": "CENTRE DENTAIRE INTERNATIONAL DE MARRAKECH",
      "phone": "05244-20975",
      "website": "https://www.centre-dentaire-marrakech.com",
      "emails": [],
      "location": "CENTRE DENTAIRE INTERNATIONAL DE MARRAKECH, Centre affaire taleeb 120 avenue Mohamed V 4 éme etage, 120 Av. Mohammed V, Marrakech 40000"
    },
    {
      "name": "dentiste marrakech (Dr. CHAD Younes)",
      "phone": "05244-21962",
      "website": "",
      "emails": [],
      "location": "marrakech"
    },
    {
      "name": "Centre Dentaire Plaza Docteur Nadour Aicha",
      "phone": "05244-23358",
      "website": "http://centredentaireplaza.ma",
      "emails": [],
      "location": "immeuble D1, 3 ème étage, bureau 6 Pl. 16 Novembre, Marrakesh 40000"
    },
    {
      "name": "𝗗𝗼𝗰𝘁𝗲𝘂𝗿 𝗖𝗵𝗶𝗿𝘂𝗿𝗴𝗶𝗲𝗻 𝗗𝗲𝗻𝘁𝗶𝘀𝘁𝗲 𝗖𝗛𝗔𝗥𝗔𝗙 𝗜𝗺𝗮𝗻𝗲 - 𝗗𝗲𝗻𝘁𝗶𝘀𝘁𝗲 𝗠𝗮𝗿𝗿𝗮𝗸𝗲𝗰𝗵",
      "phone": "05243-89622",
      "website": "https://www.e-rdv.ma/rendez-vous-avec/centre-dentaire-la-geoconda-dr-imane-charaf/3125886/567649.html",
      "emails": [],
      "location": "marrakech"
    },
    {
      "name": "Docteur Chirurgien Dentiste Saadi Mouad (Cabinet)",
      "phone": "05244-57901",
      "website": "",
      "emails": [],
      "location": "marrakech"
    },
    {
      "name": "Centre Dentaire Benjelloun",
      "phone": "0664-028273",
      "website": "",
      "emails": [],
      "location": "Imm A1 , bureau n 5 Ang av Allal el fassi et, Bd 11 Janvier, Marrakech 40000"
    },
    {
      "name": "Docteur Chirurgien Dentiste TAOUFIK LAHLOU",
      "phone": "05244-39120",
      "website": "https://drlahloutaoufik.com",
      "emails": [],
      "location": "marrakech"
    },
    {
      "name": "KOUTOUBIA DENTAL CLINIC DR OULD NANA NADA",
      "phone": "05244-58205",
      "website": "",
      "emails": [],
      "location": "marrakech"
    },
    {
      "name": "Docteur Chirurgien Dentiste El Guernaoui Siham (Direct Du Docteur)",
      "phone": "05244-34146",
      "website": "",
      "emails": [],
      "location": "marrakech"
    },
    {
      "name": "Dr. AARAB - Centre Dentaire EDEN",
      "phone": "0525-521152",
      "website": "",
      "emails": [],
      "location": "1er étage, apt N2, Immeuble Ghalia, N59 Bd el Mansour Eddahbi"
    },
    {
      "name": "Aura dental center",
      "phone": "0525-277776",
      "website": "https://auradentalcenter.com",
      "emails": [],
      "location": "marrakech"
    },
    {
      "name": "Hivernage Dental Center - Dr. Ibtissam EL OMARI",
      "phone": "05244-36773",
      "website": "https://nfcmaroc.com/ibtissam-el-omari",
      "emails": [
        "hivernagedentalcenter@gmail.com"
      ],
      "location": "Centre d'Affaires les Orangers, Angle Rue Aboubaker Seddiq et, Rue Al Adarissa, Marrakech 40000"
    },
    {
      "name": "Laser Dental Clinic / clinique dentaire Marrakech",
      "phone": "0532-052969",
      "website": "https://laserdentalclinic.ma",
      "emails": [],
      "location": "1er étage appt7, Face dental clinic, résidence salim, 79 Av. des Forces Armées Royales"
    },
    {
      "name": "Centre Dentaire SMILE WELL Marrakech",
      "phone": "0628-384601",
      "website": "https://smilewell.ma",
      "emails": [
        "cdsmilewell@gmail.com"
      ],
      "location": "2ème étage, bureau 7, Centre Dentaire SMILE WELL Marrakech, centre d"
    },
    {
      "name": "Centre Dentaire SAMSAH. Dentiste Marrakech. Urgence Dentaire Marrakech 24/7. Radio Panoramique Marrakech",
      "phone": "0708-057363",
      "website": "",
      "emails": [],
      "location": "imm chourouk apt 03 etage 02, Hay CHARAF , 554, Marrakech 40000"
    },
    {
      "name": "Centre dentaire menara garden",
      "phone": "05244-23879",
      "website": "",
      "emails": [],
      "location": "1 er étage, Centre dentaire menara garden, Nr 17 Rue el Iraq, Marrakech 40020"
    },
    {
      "name": "Clinique Dentaire Targa Marrakech",
      "phone": "05240-21919",
      "website": "https://www.cliniquedentairetarga.com",
      "emails": [
        "contact@cliniquedentairetarga.com"
      ],
      "location": "marrakech"
    },
    {
      "name": "Docteur Chirurgien Dentiste Laouinate Mustapha (Cabinet)",
      "phone": "05244-46018",
      "website": "",
      "emails": [],
      "location": "marrakech"
    },
    {
      "name": "Cabinet Dentaire Dr. DASSOULI HASSAN Mhamid Marrakech",
      "phone": "0525-221101",
      "website": "https://cabinetdrdassoulihassan.com",
      "emails": [],
      "location": "APPT.02, Cabinet Dentaire Dr. DASSOULI HASSAN Mhamid Marrakech, N 1811 LOT MAATALLAH-ETG.02, Marrakech 40150"
    },
    {
      "name": "Dr Lamia Zaki - Le Marrakech Centre Dentaire",
      "phone": "05244-49102",
      "website": "",
      "emails": [],
      "location": "2ème étage, Centre d'affaire Maryam, Ibn Oualid, N"
    },
    {
      "name": "Abou Ankira Sahar (Dentiste)",
      "phone": "05244-44217",
      "website": "",
      "emails": [],
      "location": "1, Rue Ibn Khaldoun Place Koutoubia Marrakech-Tensift-Al Haouz, Marrakech, Marrakech 40000"
    },
    {
      "name": "Cabinet dentaire Dr fadoua iklimi marrakech",
      "phone": "0525-147766",
      "website": "https://dentistmarrakech.com",
      "emails": [
        "contact@dentistmarrakech.com"
      ],
      "location": "marrakech"
    },
    {
      "name": "Centre dentaire chorouq Dr El Bouyousfi Chorouq (Dentiste)",
      "phone": "05244-49595",
      "website": "",
      "emails": [],
      "location": "marrakech"
    },
    {
      "name": "Cabinet dentaire Majorelle Dr Sahnoun Salma",
      "phone": "05242-92973",
      "website": "https://sahnounsalma.com",
      "emails": [
        "drsahnounsalma@gmail.com"
      ],
      "location": "IMM MOUTAC, Cabinet dentaire Majorelle Dr Sahnoun Salma, 26 AV ALLAL EL FASSI, Marrakech 40000"
    },
    {
      "name": "Cabinet d'Orthodontie Exclusive, Dr. DAMI Khalid",
      "phone": "05244-21756",
      "website": "https://orthomarrakech.com",
      "emails": [],
      "location": "3éme étage, Résidence Majorelle, Angle Allal El Fassi, Au dessus du Laboratoire Majorelle"
    },
    {
      "name": "Marrakech Dental Center – Dr Hind NADIM – Dentiste Marrakech : Hollywood smile implants facettes blanchiment urgences",
      "phone": "05243-00028",
      "website": "https://marrakechdental.com",
      "emails": [
        "contact@marrakechdental.com"
      ],
      "location": "Boulevard allal el fassi, centre d'affaires al anouar, 4 eme etage , bureau 35"
    },
    {
      "name": "Agbi Khalil (Dentiste)",
      "phone": "05244-41916",
      "website": "",
      "emails": [],
      "location": "marrakech"
    },
    {
      "name": "SMILE MARRAKECH DENTAL",
      "phone": "05243-41036",
      "website": "https://marrakechsmile.com",
      "emails": [
        "contact@marrakechsmile.com"
      ],
      "location": "2éme étage, Madani Plaza, 180 Bd Abdelkrim Al Khattabi, Marrakech 40000"
    },
    {
      "name": "Docteur Chirurgien Dentiste Hadid Mustapha (Cabinet)",
      "phone": "05244-05294",
      "website": "",
      "emails": [],
      "location": "marrakech"
    },
    {
      "name": "Centre Dentaire BAB AGHMAT",
      "phone": "0639-200247",
      "website": "",
      "emails": [],
      "location": "appartement 151, Centre Dentaire BAB AGHMAT, boulvard Bahmad bab aghmat immeuble al khairia, Marrakech 40000"
    },
    {
      "name": "Essaadi Moulay Youssef (Dentiste)",
      "phone": "05244-38018",
      "website": "",
      "emails": [],
      "location": "marrakech"
    },
    {
      "name": "Centre Dentaire Bennani Marrakech",
      "phone": "05243-07075",
      "website": "",
      "emails": [],
      "location": "marrakech"
    },
    {
      "name": "Centre Dentaire Dr Kawtar Ouhammou",
      "phone": "05242-00100",
      "website": "",
      "emails": [],
      "location": "1er étage, Centre Dentaire Dr Kawtar Ouhammou, Burj Malak, Bureau 18"
    },
    {
      "name": "CABINET Dr CHKILI Fethallah",
      "phone": "05244-47711",
      "website": "https://dentiste-marrakech.net",
      "emails": [
        "marrakechdentiste@gmail.com"
      ],
      "location": "marrakech"
    },
    {
      "name": "Cabinet dentaire Dr. Mohab Ghalloudi",
      "phone": "05243-30224",
      "website": "",
      "emails": [],
      "location": "Etage 1, 15 Av. Omar Al Khayam, Bureau 1 Berradi II M'Hamid, Marrakech 40160"
    },
    {
      "name": "Centre dentaire Whiteland Dr Sary Yassamine",
      "phone": "05244-04053",
      "website": "",
      "emails": [],
      "location": "marrakech"
    },
    {
      "name": "Dr lamrini dental center",
      "phone": "05242-05043",
      "website": "",
      "emails": [],
      "location": "bureau A39 3 eme etage, Dr lamrini dental center, Residence burj malak, Marrakech 43006"
    },
    {
      "name": "Dentazin - Chirurgien Dentiste - Cabinet Dentaire Multidisciplinaire",
      "phone": "0525-155392",
      "website": "https://dentazin.com",
      "emails": [
        "contact@dentazinexemple.com"
      ],
      "location": "Dentazin - Chirurgien Dentiste - Cabinet Dentaire Multidisciplinaire, N484 Q.I, Rte de Safi, Marrakech 40110"
    },
    {
      "name": "Elboukfaoui Hicham ( Chirurgien Dentiste)",
      "phone": "05244-34699",
      "website": "",
      "emails": [],
      "location": "Av. Hassan Ii Ang. Khalid Bnou Loualid Resid. Ham, Marrakech-Tensift-Al, Haouz, Marrakech"
    },
    {
      "name": "Dr. El Mohtarim Sara- chirurgien dentiste",
      "phone": "05244-21924",
      "website": "https://www.dabadoc.com/ma/dentiste/marrakech/sara-el-mohrarim",
      "emails": [],
      "location": "1 ÉTAGE, RÉS. AL OUSRA APPART, 1 Bd Mohamed VI, Marrakech 40000"
    },
    {
      "name": "Cabinet Dentaire Dr Imane EL FADLI - Chirurgien Dentiste Orthodentiste Blanchiment / طبيبة اسنان",
      "phone": "05243-71648",
      "website": "https://drimanedentiste.com",
      "emails": [],
      "location": "1263, 2ème étage, rue Oujda, Lot Maatallah"
    },
    {
      "name": "Luxe Dental Clinic",
      "phone": "0525-134952",
      "website": "",
      "emails": [],
      "location": "1er étage, Luxe Dental Clinic, Résidence Alfirdaous imm 49 lotissement, Marrakesh 40000"
    },
    {
      "name": "My Dentist Dental Clinic - Dr. I.Lazrek & Dr. Y.Rkha",
      "phone": "05244-20946",
      "website": "https://mydentistclinic.ma",
      "emails": [
        "Contact@mydentistclinic.ma",
        "contact@mydentistclinic.ma"
      ],
      "location": "App 31 5ème étage appartement, Centre d'affaire Anas, Av. 4ème D.M.M., Marrakech 40000"
    },
    {
      "name": "Docteur Chirurgien Dentiste Ouedrhiri Ahmed (Cabinet)",
      "phone": "05244-46062",
      "website": "https://docteur-ouedrhiri.com",
      "emails": [
        "info@docteur-ouedrhiri.com"
      ],
      "location": "3éme étage, Appartement 9, Boulevard Abdelkrim El Khattabi, 113 Résidence Al Mouhandiz"
    },
    {
      "name": "Smiley Dental Center",
      "phone": "0664-554589",
      "website": "https://smileydental.ma",
      "emails": [
        "info@smileydental.ma",
        "Wazizkhalil99@gmail.com"
      ],
      "location": "1er Etage Appt 2, Smiley Dental Center, Imm.Ratma 91, Marrakech 40000"
    },
    {
      "name": "Cabinet dentaire Le beau sourire",
      "phone": "05243-04343",
      "website": "",
      "emails": [],
      "location": "Avenue Ibn jabrane amerchich, centre d affaire Lina, imm D, 40070"
    },
    {
      "name": "Montblanc Dental Center | Hollywood Smile, Implants, Invisalign, Ortho, Facettes, Blanchiment Dentaire, Dentiste Marrakech",
      "phone": "05244-32942",
      "website": "https://www.mbdental.ma",
      "emails": [
        "contact@mbdental.ma"
      ],
      "location": "marrakech"
    },
    {
      "name": "Cabinet dentaire Dr. Bennani Doubli Samia",
      "phone": "05244-49103",
      "website": "http://marrakech-dental.com",
      "emails": [
        "Dr.bennanidoublisamia@gmail.com"
      ],
      "location": "marrakech"
    },
    {
      "name": "Centre dentaire belbakkar",
      "phone": "0632-325223",
      "website": "https://centredentairebelbakkar.com",
      "emails": [],
      "location": "bloc B,appartement N 1, Av. Achatibi, Marrakesh 40000"
    },
    {
      "name": "Centre Dentaire Freedom مركز طب الأسنان الحرية",
      "phone": "0672-109010",
      "website": "https://centredentairefreedom.com",
      "emails": [
        "Contact@centredentairefreedom.com"
      ],
      "location": "marrakech"
    },
    {
      "name": "Bennani Abdeljaouad (Dentiste)",
      "phone": "05244-49136",
      "website": "",
      "emails": [],
      "location": "marrakech"
    },
    {
      "name": "Cabinet dentaire Dr El Mjabber Dalal",
      "phone": "05244-35887",
      "website": "",
      "emails": [],
      "location": "Cabinet dentaire Dr El Mjabber Dalal, Gueliz avenue hassan 2 résidence koutoubia centre 2. 2 étage, N8, Marrakech 40000"
    },
    {
      "name": "dentistripro",
      "phone": "0720-670696",
      "website": "https://calendly.com/dentistripro/30min",
      "emails": [],
      "location": "marrakech"
    },
    {
      "name": "Centre Dentaire - Dr Adil Guelzim",
      "phone": "05376-82468",
      "website": "https://orthodontiste-rabat.com",
      "emails": [
        "contact@centre-dentaire-agdal.com",
        "cda.dentiste.rabat@gmail.com"
      ],
      "location": "marrakech"
    },
    {
      "name": "Centre Dentaire Ghazala",
      "phone": "05243-04310",
      "website": "https://centredentaireghazala.ma",
      "emails": [],
      "location": "Appt N 4, Ben Youssef-Q, Imm.Al Badii 01, N"
    },
    {
      "name": "Clinique Internationale de Marrakech",
      "phone": "05243-69595",
      "website": "https://www.clinique-internationale-marrakech.com",
      "emails": [],
      "location": "marrakech"
    },
    {
      "name": "Docteur Chirurgien Dentiste Ouadfel Naila (Cabinet)",
      "phone": "05244-21516",
      "website": "",
      "emails": [],
      "location": "marrakech"
    },
    {
      "name": "Errajraji Alyoune Nadia (Dentiste)",
      "phone": "05244-45610",
      "website": "",
      "emails": [],
      "location": "marrakech"
    },
    {
      "name": "Docteur Mourad El Yamine",
      "phone": "05243-11819",
      "website": "",
      "emails": [],
      "location": "marrakech"
    },
    {
      "name": "Cabinet Dentaire Massira",
      "phone": "05243-43436",
      "website": "",
      "emails": [],
      "location": "marrakech"
    },
    {
      "name": "Dounia Dental Center par Dr. Dounia TARBALOUTI",
      "phone": "05244-97235",
      "website": "",
      "emails": [],
      "location": "D483 5eme étage bureau 17, Dounia Dental Center par Dr. Dounia TARBALOUTI, Massira Business Center, Massira 1 A"
    },
    {
      "name": "Cabinet dentaire Dr MABROUR Yassin",
      "phone": "05243-41926",
      "website": "",
      "emails": [],
      "location": "marrakech"
    },
    {
      "name": "Dr Bouhtit Mohamed (Chirurgien Dentiste)",
      "phone": "05244-90020",
      "website": "",
      "emails": [],
      "location": "marrakech"
    },
    {
      "name": "Dr Cherkaoui Jaouad Adnane dentiste massira",
      "phone": "05244-96868",
      "website": "",
      "emails": [],
      "location": "marrakech"
    },
    {
      "name": "Chirurgien Dentiste Dr. Achraf Belkamel",
      "phone": "0693-859302",
      "website": "",
      "emails": [],
      "location": "Appt 7, Chirurgien Dentiste Dr. Achraf Belkamel, Massira 1b Résidence Hicham 2, Marrakesh"
    },
    {
      "name": "Cabinet dentaire docteur kamihi Mohamed amine",
      "phone": "0631-362826",
      "website": "",
      "emails": [],
      "location": "marrakech"
    },
    {
      "name": "Bright smile centre dentaire",
      "phone": "05243-47198",
      "website": "",
      "emails": [],
      "location": "N 399 - ETG.01, N 1B, Massira 03, Marrakech 40140"
    },
    {
      "name": "Cabinet Dentaire Docteur Soukaina El Jouali",
      "phone": "0600-300019",
      "website": "",
      "emails": [],
      "location": "marrakech"
    },
    {
      "name": "Centre d'orthodontie Dr. Dany Hicham",
      "phone": "05243-94215",
      "website": "",
      "emails": [],
      "location": "66 av Dakhla, résidence Fatima Zahra , Massira 1, Marrakesh 40000"
    },
    {
      "name": "Cabinet de chirurgie dentaire BOULANOUAR",
      "phone": "05244-94738",
      "website": "",
      "emails": [],
      "location": "marrakech"
    },
    {
      "name": "Dr Hajar Ouafir",
      "phone": "05243-49081",
      "website": "",
      "emails": [],
      "location": "marrakech"
    },
    {
      "name": "Cabinet Dentaire Dr Mohamed Otmane Hassani",
      "phone": "05244-97946",
      "website": "",
      "emails": [],
      "location": "marrakech"
    },
    {
      "name": "Cabinet dentaire Dr Othmani Rania",
      "phone": "05243-44330",
      "website": "",
      "emails": [],
      "location": "1er étage, Massira 1B, N 785, Marrakech"
    },
    {
      "name": "Cabinet de Chirurgie Dentaire Dr. El Haouzi Souhaïla",
      "phone": "0606-406454",
      "website": "",
      "emails": [],
      "location": "marrakech"
    },
    {
      "name": "Centre dentaire Ennaji - chirurgien dentiste-",
      "phone": "05243-42423",
      "website": "http://dr-ennaji-abdelkebir.com",
      "emails": [
        "drennajiabdelkebir@gmail.com"
      ],
      "location": "Massira 1 C ,avenue al kantara centre d'affaire massira 1 er étage, N 6,Marrakech"
    },
    {
      "name": "Docteur Chirurgien Dentiste Hanich Amal (Cabinet)",
      "phone": "05243-48379",
      "website": "",
      "emails": [],
      "location": "marrakech"
    }
  ]
}