{
  "metadata": {
    "businessType": "dentiste in",
    "location": "rabat",
    "totalResults": 190,
    "scrapedAt": "2025-08-17T21:30:05.438Z",
    "scrapedAtLocal": "8/17/2025, 10:30:05 PM",
    "isAutoSave": false
  },
  "results": [
    {
      "name": "Clinique Dentaire Rabat B√¥ Sourire agdal - Orthodontie - invisalign - implants",
      "phone": "05377-74646",
      "website": "https://cliniquedentairerabatbosourire.ma",
      "emails": [
        "bosourire.agdal@gmail.com"
      ],
      "location": "rabat"
    },
    {
      "name": "LA CLINIQUE DENTAIRE DES NATIONS UNIES RABAT",
      "phone": "05376-70660",
      "website": "https://cliniquedentairedesspecialitesrabat.com/nos-services",
      "emails": [],
      "location": "rabat"
    },
    {
      "name": "Centre Dentaire Agdal Smile Rabat - Professeur Berrada Fathi Idriss",
      "phone": "05376-83939",
      "website": "https://www.centredentairesmile.ma",
      "emails": [
        "contact@centredentairesmile.ma"
      ],
      "location": "3eme √©tage, appartement, 59 Av. Fal Ould Oumeir, Rabat"
    },
    {
      "name": "Cabinet Dentaire BELGHITI Yousra",
      "phone": "05376-75608",
      "website": "",
      "emails": [],
      "location": "appartement 1, Cabinet Dentaire BELGHITI Yousra, 59 Av. Ibn Sina, Rabat 10080"
    },
    {
      "name": "Cabinet Dentaire Sp√©cialis√©: Dr Mohammed Oujidi",
      "phone": "05376-86814",
      "website": "",
      "emails": [],
      "location": "appt 3 , Etage 1, 32,avenue Omar Ibn Khattab"
    },
    {
      "name": "Agdal Dental Clinic",
      "phone": "05376-75065",
      "website": "",
      "emails": [],
      "location": "rabat"
    },
    {
      "name": "Cabinet Dentaire Al Balssame - Dr Balssame Kabbaj",
      "phone": "05376-82837",
      "website": "https://www.dabadoc.com/ma/dentiste/rabat/balssame-kabbaj",
      "emails": [],
      "location": "rabat"
    },
    {
      "name": "Centre Dentaire We Smile",
      "phone": "05377-37377",
      "website": "",
      "emails": [],
      "location": "rabat"
    },
    {
      "name": "COI - Dr Muadh Bouhajra - Cabinet dentaire Agdal",
      "phone": "05377-77944",
      "website": "",
      "emails": [],
      "location": "rabat"
    },
    {
      "name": "Dr KHAMLICH - Dentiste Pluridisciplinaire - Clinique dentaire Arribat - Rabat Agdal",
      "phone": "0611-381111",
      "website": "https://drkhamlich.com",
      "emails": [],
      "location": "rabat"
    },
    {
      "name": "Cabinet dentaire (Benabdeljalil imane)",
      "phone": "05377-75252",
      "website": "",
      "emails": [],
      "location": "rabat"
    },
    {
      "name": "Cabinet Dentaire Dr Sallahi Amine",
      "phone": "05376-75505",
      "website": "",
      "emails": [],
      "location": "Appt.1, Cabinet Dentaire Dr Sallahi Amine, 8 bis Rue Oum Errabia, Rabat"
    },
    {
      "name": "Clinique dentaire arribat / Urgence",
      "phone": "05377-31383",
      "website": "https://cliniquedentairearribat.com",
      "emails": [
        "john@doe.com"
      ],
      "location": "n 8, Orthodontie Arribat Center, 18 Av. Omar Ibn Al Khattab, Rabat"
    },
    {
      "name": "Cabinet d'Orthodontie - Dr Benchekroun Abiyya (chirurgien dentiste et orthodontiste) RABAT-AGDAL",
      "phone": "05376-72332",
      "website": "",
      "emails": [],
      "location": "rabat"
    },
    {
      "name": "COI - Dr Line Sawas Nabhan - Cabinet dentaire Agdal",
      "phone": "0628-623270",
      "website": "https://drlinesawas.com",
      "emails": [],
      "location": "rabat"
    },
    {
      "name": "Cabinet dentaire ST' Art Dental Care Dr . Sara Tazi - Dentiste et Orthodontiste - Rabat.",
      "phone": "0530-201684",
      "website": "https://drsaratazi.wixsite.com/acceuil",
      "emails": [
        "drtazisara@gmail.com"
      ],
      "location": "1er √©tage Appt 2, Cabinet dentaire ST' Art Dental Care Dr . Sara Tazi - Dentiste et Orthodontiste - Rabat., 35 Avenue Al Amir, Avenue Fal Ould Oumeir"
    },
    {
      "name": "DR HARZALLAH Achref - Dental Clinic",
      "phone": "0677-147648",
      "website": "",
      "emails": [],
      "location": "rabat"
    },
    {
      "name": "Cabinet Dentaire Sp√©cialis√© | Orthodontie, Implantologie , esth√©tique du sourire| Dr BENDOURO MOHAMED KAMAL",
      "phone": "05376-86457",
      "website": "",
      "emails": [],
      "location": "rabat"
    },
    {
      "name": "DR Btissam ELOUAFI (clinique dentaire )",
      "phone": "0677-721495",
      "website": "",
      "emails": [],
      "location": "rabat"
    },
    {
      "name": "Clinique Dentaire Mahaj",
      "phone": "05375-71761",
      "website": "https://www.mahajdentaire.com",
      "emails": [
        "contact@mahajdentaire.com"
      ],
      "location": "rabat"
    },
    {
      "name": "Clinique Dentaire Riad",
      "phone": "05377-10332",
      "website": "https://www.cliniquedentaireriad.com",
      "emails": [
        "orthorabat@gmail.com",
        "myemail@gmail.com"
      ],
      "location": "Clinique Dentaire Riad, Res Dar El Mehdi, 3 Rue Arromane, Rabat 10110"
    },
    {
      "name": "Annakhil Riad - Clinique Dentaire - M√©decine esth√©tique - Rabat",
      "phone": "05375-70037",
      "website": "https://annakhilriaddental.com",
      "emails": [
        "contact@mysite.com",
        "contact@annakhilriaddental.com"
      ],
      "location": "Annakhil Riad - Clinique Dentaire - M√©decine esth√©tique - Rabat, 10000, 27 Av. Annakhil, Rabat"
    },
    {
      "name": "Coi -Dr Messari Yasser - Cabinet dentaire Hay Riad",
      "phone": "0681-208150",
      "website": "https://coirabat.com",
      "emails": [
        "coi.rabat@gmail.com"
      ],
      "location": "Coi -Dr Messari Yasser - Cabinet dentaire Hay Riad, 8 secteur 14 bloc R, villa 628, 10100"
    },
    {
      "name": "Clinique dentaire Ryad center",
      "phone": "05377-15815",
      "website": "",
      "emails": [],
      "location": "2√®me √©tage, Clinique dentaire Ryad center, Ryad Business Center Aile Sud Imm S2, Rabat"
    },
    {
      "name": "Kettani Dental Center",
      "phone": "05377-16620",
      "website": "https://www.kettanidentalcenter.ma",
      "emails": [
        "contact@www.kettanidentalcenter.ma",
        "contact@kettanidentalcenter.ma"
      ],
      "location": "imm 2, Lot 32 secteur 6 rue arrayhan, Av. Annakhil, Rabat 10100"
    },
    {
      "name": "Centre Dentaire Naoual Lahbabi",
      "phone": "0653-535048",
      "website": "https://www.centredentairenaouallahbabi.ma",
      "emails": [
        "contact@centredentairenaouallahbabi.ma",
        "contact@www.centredentairenaouallahbabi.ma"
      ],
      "location": "rabat"
    },
    {
      "name": "CENTRE DENTAIRE DR MQIRAGE NAWAL",
      "phone": "05375-71337",
      "website": "https://cabinet-dentaire-dr-mqirage.ma",
      "emails": [
        "cabinetdent@hotmail.com"
      ],
      "location": "immb 33 appt2, CENTRE DENTAIRE DR MQIRAGE NAWAL, riad al andalouse, al ambra4"
    },
    {
      "name": "NOUR CLINIC - Clinique Dentaire Rabat Hay Riad",
      "phone": "0701-015050",
      "website": "https://nourclinic.ma",
      "emails": [],
      "location": "rabat"
    },
    {
      "name": "Cabinet Dentaire BESRI Omar",
      "phone": "05377-16174",
      "website": "",
      "emails": [],
      "location": "Cabinet Dentaire BESRI Omar, Immeuble Yasser3, Av. Mohamed Al Yazidi, Rabat 10000"
    },
    {
      "name": "Clinique Dentaire Germano-Syrien rabat",
      "phone": "05376-80263",
      "website": "https://dentalimplantsmorocco.com",
      "emails": [
        "john@doe.com"
      ],
      "location": "rabat"
    },
    {
      "name": "Dr Saad Khalil",
      "phone": "05377-15169",
      "website": "https://www.drsaadkhalil.ma",
      "emails": [
        "contact@drsaadkhalil.ma"
      ],
      "location": "appartement 2, R√©sidence Prestigia Riad Al Andalous, 88, Rabat"
    },
    {
      "name": "Centre Dentaire Sp√©cialis√© Dr Yasser Boukhal - Dentiste Rabat",
      "phone": "0654-034628",
      "website": "https://cabinet-dentaire-dr-boukhal.ma",
      "emails": [],
      "location": "1er √âtage , 569, Hay Al Massira, Amal 5"
    },
    {
      "name": "Centre Dentaire Sp√©cialis√© Bentayeb",
      "phone": "05377-11101",
      "website": "",
      "emails": [],
      "location": "rabat"
    },
    {
      "name": "German Syrian Dental Clinic (Dr.Benkhadra Imad )",
      "phone": "0771-326928",
      "website": "https://gsdentalclinic.ma",
      "emails": [
        "contact@gsdentalclinic.ma"
      ],
      "location": "rabat"
    },
    {
      "name": "Dr Badr Ezzahouani : Coi Hay Riad - Implantologie&Parodontologie",
      "phone": "0618-322467",
      "website": "",
      "emails": [],
      "location": "rabat"
    },
    {
      "name": "Cabinet Dentaire Docteur Zitouni Monssef",
      "phone": "05375-65657",
      "website": "",
      "emails": [],
      "location": "rabat"
    },
    {
      "name": "Cabinet Dentaire Dr. Meriem Zougaghi",
      "phone": "05375-65683",
      "website": "https://dentalcarerabat.com",
      "emails": [],
      "location": "rabat"
    },
    {
      "name": "Centre Dentaire: Sweet Smile",
      "phone": "0639-810894",
      "website": "https://sweetsmiledentaire.com",
      "emails": [
        "sweetsmile.dentalcenter@gmail.com"
      ],
      "location": "B , Appt, Residence Riad Hassan, 38"
    },
    {
      "name": "Cabinet Dentaire Dr. Khaoula Bencheikh (Dentiste)",
      "phone": "05372-01150",
      "website": "",
      "emails": [],
      "location": "Immeuble 12, Appartement 4, 1er etage, Rue Annaba"
    },
    {
      "name": "Centre Dentaire Lahyani - DENTISTE RABAT",
      "phone": "0777-604360",
      "website": "https://rabat-dentiste.com",
      "emails": [
        "drlahyanizineb@gmail.com",
        "centredentairelahyani@gmail.com"
      ],
      "location": "et Moulay Ahmad Eloukili, 23 angle des rues, Av. Youssef Ben Tachfine, Rabat 10000"
    },
    {
      "name": "Cabinet Dentaire Dr. Khalid Bouzekri",
      "phone": "05377-07090",
      "website": "",
      "emails": [],
      "location": "rabat"
    },
    {
      "name": "Cabinet dentaire DR Rachid-Tahri Lamia",
      "phone": "0661-391545",
      "website": "",
      "emails": [],
      "location": "rabat"
    },
    {
      "name": "Clinique dentaire Saada Smile - Urgences dentaires -",
      "phone": "0661-250137",
      "website": "https://www.cliniquedentairesaada.com",
      "emails": [],
      "location": "√âtage 3, entr√©e 7, Immeuble Saada, Av. Hassan II"
    },
    {
      "name": "Dr. Rouijel Mounir - Cabinet dentaire Smile House",
      "phone": "05372-03636",
      "website": "https://www.centredentairesmilehouserabat.ma",
      "emails": [
        "contact@www.centredentairesmilehouserabat.ma",
        "contact@centredentairesmilehouserabat.ma"
      ],
      "location": "1 er √©tage app 8, Hassan, imm Al Amal, 38 Av. Abdelmoumen"
    },
    {
      "name": "Cabinet Dentaire Dr Mamouni Meryem",
      "phone": "05377-00514",
      "website": "https://dentiste-rabat.net",
      "emails": [
        "contact@dentiste-rabat.net"
      ],
      "location": "rabat"
    },
    {
      "name": "Centre dentaire multidisciplinaire Hachami",
      "phone": "0645-260094",
      "website": "",
      "emails": [],
      "location": "appartement 2, 2, rue Moulay Ahmed LOUKILI, Hassan"
    },
    {
      "name": "Cabinet dentaire Dr Fahd Fannan",
      "phone": "05377-28201",
      "website": "https://www.drfahdfannan.ma",
      "emails": [
        "contact@drfahdfannan.ma"
      ],
      "location": "rabat"
    },
    {
      "name": "Cabinet dentaire Bernoussi",
      "phone": "05377-27705",
      "website": "",
      "emails": [],
      "location": "2eme etage, Cabinet dentaire Bernoussi, 1 rue alexandrie Immeuble 1, Rabat 10000"
    },
    {
      "name": "So Smile cabinet dentaire (dr rhourri omar/dr fathi safae)- implantologue et orthodontiste a rabat",
      "phone": "05372-60607",
      "website": "https://smilerabat.com",
      "emails": [
        "nn0864772@gmail.com",
        "sosmile@gmail.com",
        "contact@sosmile.com",
        "contact@smilerabat.com"
      ],
      "location": "rabat"
    },
    {
      "name": "Docteur Chirurgien Dentiste Zahim Abdelhamid (Cabinet)",
      "phone": "05372-02695",
      "website": "",
      "emails": [],
      "location": "rabat"
    },
    {
      "name": "Cabinet Dentaire Multidisciplinaire Dr Mohamed Reda Boutalib",
      "phone": "0655-302476",
      "website": "",
      "emails": [],
      "location": "√©tage 1 Appt 3, Cabinet Dentaire Multidisciplinaire Dr Mohamed Reda Boutalib, 15 Rue Moulay Ahmed Loukili, Rabat 10020"
    },
    {
      "name": "Cabinet Dr Raouf Mouelhi",
      "phone": "05372-04191",
      "website": "",
      "emails": [],
      "location": "Cabinet Dr Raouf Mouelhi, 19 Avenue d'Alger, Hassan, Rabat 10000"
    },
    {
      "name": "Centre dentaire Dr HANAE BARRAKI",
      "phone": "05376-61442",
      "website": "https://drhanaebarraki.com",
      "emails": [
        "secretariat@drhanae.com"
      ],
      "location": "Centre dentaire Dr HANAE BARRAKI, 1 avenue annaba, Av. Moulay Hassan, Rabat 10000"
    },
    {
      "name": "Docteur Chirurgien Dentiste Taoufik Benchekroun Sa (Cabinet)",
      "phone": "05377-38498",
      "website": "",
      "emails": [],
      "location": "rabat"
    },
    {
      "name": "Cabinet dentaire DR.DRISSI Yousra",
      "phone": "05377-27260",
      "website": "",
      "emails": [],
      "location": "5 bis, Au dessus de attijariwafa bank, immeuble centre ville, Appt 24"
    },
    {
      "name": "Cabinet dentaire Docteur Rania Ahmar Legroun",
      "phone": "05377-09191",
      "website": "",
      "emails": [],
      "location": "rabat"
    },
    {
      "name": "Debbi Loubna (Dentiste)",
      "phone": "05377-55554",
      "website": "",
      "emails": [],
      "location": "Quartier Youssoufia, Grp. 6, Imm. 15, 1"
    },
    {
      "name": "Docteur Rachid El Oumami",
      "phone": "0663-085866",
      "website": "",
      "emails": [],
      "location": "rabat"
    },
    {
      "name": "Cabinet dentaire dr. Sara houachi",
      "phone": "05376-56983",
      "website": "",
      "emails": [],
      "location": "Cabinet dentaire dr. Sara houachi, Mabella, Avenue tadla R√©sidence el massira immeuble 31 appartement 6, Rabat"
    },
    {
      "name": "Centre De Sante Youssoufia",
      "phone": "05376-51103",
      "website": "",
      "emails": [],
      "location": "rabat"
    },
    {
      "name": "Dr KALLOUBI Wassim",
      "phone": "05376-56524",
      "website": "",
      "emails": [],
      "location": "rabat"
    },
    {
      "name": "Cabinet Dentaire Dr. Yousra Malek- ÿπŸäÿßÿØÿ© ÿ∑ÿ® ÿßŸÑÿßÿ≥ŸÜÿßŸÜ ÿßŸÑÿØŸÉÿ™Ÿàÿ±ÿ© Ÿäÿ≥ÿ±Ÿâ ŸÖÿßŸÑŸÉ",
      "phone": "0603-010910",
      "website": "",
      "emails": [],
      "location": "rabat"
    },
    {
      "name": "Dr Bakkali Soraya",
      "phone": "05376-81213",
      "website": "",
      "emails": [],
      "location": "Imm 4, Appt 12, Av. Al Atlas, Rabat 10090"
    },
    {
      "name": "Elmoussaoui Houda (Dentiste)",
      "phone": "05376-86833",
      "website": "",
      "emails": [],
      "location": "rabat"
    },
    {
      "name": "ÿπŸäÿßÿØÿ© ÿßŸÑÿØŸÉÿ™Ÿàÿ± Ÿàÿ≥ŸäŸÖ",
      "phone": "0622-651527",
      "website": "",
      "emails": [],
      "location": "rabat"
    },
    {
      "name": "Cabinet dentaire Dr. Nouha BOUIDIDA",
      "phone": "05377-70020",
      "website": "",
      "emails": [],
      "location": "rabat"
    },
    {
      "name": "Cabinet Dentaire Dr Errounda",
      "phone": "05377-02753",
      "website": "",
      "emails": [],
      "location": "rabat"
    },
    {
      "name": "Docteur Chirurgien Dentiste Sattei Noureddine (Cabinet)",
      "phone": "05377-02213",
      "website": "",
      "emails": [],
      "location": "rabat"
    },
    {
      "name": "Laboratoire Dentaire Ocean",
      "phone": "05377-27010",
      "website": "",
      "emails": [],
      "location": "Laboratoire Dentaire Ocean, 23, Rue Du Togo, 1"
    },
    {
      "name": "CENTRE DENTAIRE SP√âCIALIS√â - DR. Benbrahim Mounia Orthodontiste Sp√©cialiste en implantolgie",
      "phone": "",
      "website": "",
      "emails": [],
      "location": "premier √©tage, Place de Russie, Oc√©an, Rabat 10040"
    },
    {
      "name": "Centre Dentaire HARRAZ",
      "phone": "0653-634178",
      "website": "",
      "emails": [],
      "location": "rabat"
    },
    {
      "name": "Amaoui Anass (Dentiste)",
      "phone": "05372-07151",
      "website": "https://www.mondentiste.ma/anass-amaoui-4574.htm",
      "emails": [
        "contact@mondentiste.ma"
      ],
      "location": "rabat"
    },
    {
      "name": "ATLANTIC DENTAL CENTER",
      "phone": "0661-300426",
      "website": "https://www.atlanticdentalcenter.ma",
      "emails": [
        "contact@atlanticdentalcenter.ma",
        "dr.machtak@gmail.com"
      ],
      "location": "Appartement 1, Oc√©an Residence amine, 32 Av. Al Maghrib Al Arabi, Rabat 10100"
    },
    {
      "name": "Cabinet Dr.OULED AMEUR Marouane",
      "phone": "05377-65762",
      "website": "",
      "emails": [],
      "location": "rabat"
    },
    {
      "name": "Centre Dentaire Oulahyane - Dr. Brahim Oulahyane",
      "phone": "05377-00011",
      "website": "https://drbrahimoulahyane.com",
      "emails": [],
      "location": "1er etage app, R√©sidence Nezha, rue tol√®de, n 8 Av. Abdelkrim Al Khattabi"
    },
    {
      "name": "Dentiste ABOUELHOUDA",
      "phone": "05377-37333",
      "website": "",
      "emails": [],
      "location": "rabat"
    },
    {
      "name": "Centre sant√© ocean",
      "phone": "",
      "website": "",
      "emails": [],
      "location": "Centre sant√© ocean, 7 Derb cherkaoui, rue Lalla oumkanabech, Rabat"
    },
    {
      "name": "Infirmerie de garnison Rabat",
      "phone": "",
      "website": "",
      "emails": [],
      "location": "rabat"
    },
    {
      "name": "Clinique Dentaire Souissi",
      "phone": "05377-57474",
      "website": "",
      "emails": [],
      "location": "5, lotissement Mouline II, Souissi, Rabat"
    },
    {
      "name": "Dentiste Rabat : Centre dentaire Mill√©nium Dr Benyagoub Meryem",
      "phone": "0530-137959",
      "website": "",
      "emails": [],
      "location": "1er √©tg, Centre Millenium 3 Angle Av Mehdi ben barka Souissi et, rue Prince Sidi Mohamed, Rabat"
    },
    {
      "name": "Clinique Dentaire Rabat Ville",
      "phone": "05377-61357",
      "website": "",
      "emails": [],
      "location": "rabat"
    },
    {
      "name": "Cabinet Dentaire Docteur Ejjradi Mourad-Rabat",
      "phone": "05372-01797",
      "website": "https://www.mondentiste.ma/mourad-ejjradi-4575.htm",
      "emails": [
        "contact@mondentiste.ma"
      ],
      "location": "rabat"
    },
    {
      "name": "Docteur Chirurgien Dentiste Nejjar Salma (Cabinet)",
      "phone": "05377-27001",
      "website": "",
      "emails": [],
      "location": "rabat"
    },
    {
      "name": "Cabinet dentaire Dr Mehdi Ghono",
      "phone": "05372-64141",
      "website": "",
      "emails": [],
      "location": "1 er √©tage, Place Mamounia, Av. Mohammed 5, 6 Rue Beyrouth"
    },
    {
      "name": "Docteur Chirurgien Dentiste Rostoum Khadija (Cabinet)",
      "phone": "05377-37194",
      "website": "",
      "emails": [],
      "location": "rabat"
    },
    {
      "name": "Cabinet d'Orthodontie Dr RAISSOUNI Raissoun (RABAT)",
      "phone": "05377-30606",
      "website": "",
      "emails": [],
      "location": "rabat"
    },
    {
      "name": "Dr. Moussa Bellafqih - Centre Dentaire Sp√©cialis√©",
      "phone": "05377-34271",
      "website": "",
      "emails": [],
      "location": "apt 9, etg 3, 425 Av. Hassan II, Rabat 10060"
    },
    {
      "name": "Clinique dentaire - facult√© medecine dentaire",
      "phone": "",
      "website": "",
      "emails": [],
      "location": "rabat"
    },
    {
      "name": "Facult√© de M√©decine Dentaire de Rabat",
      "phone": "05377-71849",
      "website": "http://fmd.um5.ac.ma",
      "emails": [],
      "location": "rabat"
    },
    {
      "name": "Chirurgien dentiste Rabat - Dr. Abdellah Laenser",
      "phone": "05376-74343",
      "website": "https://dentistelaenser.ma",
      "emails": [],
      "location": "rabat"
    },
    {
      "name": "Centre Dentaire ALMANAR (Dr. YADINI Manar)",
      "phone": "05372-82818",
      "website": "",
      "emails": [],
      "location": "2ieme √©tage, Complement Massira, 1004 Amal 5, Rabat 10140"
    },
    {
      "name": "Cabinet dentaire Al Joulane",
      "phone": "0767-373330",
      "website": "",
      "emails": [],
      "location": "1er √©tage, Cabinet dentaire Al Joulane, Avenue assalam, bloc JC n"
    },
    {
      "name": "Cabinet Dentaire Nahda Dr. Jihade EL Fazazi",
      "phone": "05377-58197",
      "website": "",
      "emails": [],
      "location": "1er √©tage, Cabinet Dentaire Nahda Dr. Jihade EL Fazazi, Hay Nahda 2 extension 3 lot N 92, Rabat 10210"
    },
    {
      "name": "Menzeh Cabinet Dentaire - Dr. Zineb Haimeur",
      "phone": "05372-94040",
      "website": "",
      "emails": [],
      "location": "1er √©tage, Menzeh Cabinet Dentaire - Dr. Zineb Haimeur, 1183 Av. Al Menzeh, Rabat 10150"
    },
    {
      "name": "Cabinet dentaire Al Khair",
      "phone": "05376-93946",
      "website": "",
      "emails": [],
      "location": "rabat"
    },
    {
      "name": "Cabinet Dentaire Dr Widad Fartas",
      "phone": "05376-99289",
      "website": "",
      "emails": [],
      "location": "Num 45 1er √©tage, qamra, Au dessus de banque attawfiq Kamra, Bloc T8 Av. Assalam"
    },
    {
      "name": "Cabinet dentaire d'Orthodontie et d‚Äôimplantologie - Dr EL MKADMI Meryem",
      "phone": "0530-010640",
      "website": "",
      "emails": [],
      "location": "rabat"
    },
    {
      "name": "KHALIL BOUMLAK (Chirurgien Dentiste)",
      "phone": "05376-31735",
      "website": "",
      "emails": [],
      "location": "rabat"
    },
    {
      "name": "Eddaoudi Alae (Dentiste)",
      "phone": "05376-32919",
      "website": "",
      "emails": [],
      "location": "rabat"
    },
    {
      "name": "Dr Medouar Soukaina dentiste",
      "phone": "05376-53325",
      "website": "",
      "emails": [],
      "location": "16, avenue el haouz, groupe argane, 2√®me √©tage"
    },
    {
      "name": "Jassab Mustapha (Dentiste)",
      "phone": "05377-51121",
      "website": "",
      "emails": [],
      "location": "rabat"
    },
    {
      "name": "Dr. BOUNOU ASMAA",
      "phone": "05377-52965",
      "website": "",
      "emails": [],
      "location": "rabat"
    },
    {
      "name": "El Quammah Souad",
      "phone": "05376-30890",
      "website": "",
      "emails": [],
      "location": "R√©sidence Al waha imm12,appart 7,hay Nahda1 ,Rabat"
    },
    {
      "name": "Dr naoufrl iderkou",
      "phone": "05376-52120",
      "website": "https://www.drnawfal.ma",
      "emails": [
        "contact@drnawfal.ma"
      ],
      "location": "rabat"
    },
    {
      "name": "Dr. BENSOUDA YASMINE - Centre Dentaire Bensouda",
      "phone": "05377-56178",
      "website": "",
      "emails": [],
      "location": "1er √©tage, Groupe Argane, 21 Ave Al Haouz, Rabat"
    },
    {
      "name": "Cabinet Dentaire Dr BENDALI SALMA",
      "phone": "05377-56013",
      "website": "",
      "emails": [],
      "location": "rabat"
    },
    {
      "name": "Cabinet Dentaire Dr. Mohamed Zaraoul",
      "phone": "05376-30498",
      "website": "",
      "emails": [],
      "location": "Cabinet Dentaire Dr. Mohamed Zaraoul, Groupe Arrabii, Numero 1 Bloc 8, Rabat 10200"
    },
    {
      "name": "ùóór : TAHRI ABDELHAMID ùóñùóµùó∂ùóøùòÇùóøùó¥ùó∂ùó≤ùóª ùóóùó≤ùóªùòÅùó∂ùòÄùòÅùó≤ - URGENCE DENTAIRE RABAT 24H/24",
      "phone": "0696-036981",
      "website": "https://www.drtahriabdelhamid.ma",
      "emails": [],
      "location": "1 er √©tage , Appartement 2, 54 Av. Oqba Ibn Naafi, Rabat 10000"
    },
    {
      "name": "Achour Khalifa Lamia (Dentiste)",
      "phone": "05377-54312",
      "website": "",
      "emails": [],
      "location": "rabat"
    },
    {
      "name": "centre odontologie de la gendarmerie royale",
      "phone": "",
      "website": "",
      "emails": [],
      "location": "rabat"
    },
    {
      "name": "Cabinet d'odontologie pediatrique Dr Amal Hajji",
      "phone": "05377-22702",
      "website": "",
      "emails": [],
      "location": "rabat"
    },
    {
      "name": "Rabat Dental Center (Dr. Wassim Korati)",
      "phone": "05377-35817",
      "website": "",
      "emails": [],
      "location": "rabat"
    },
    {
      "name": "Benlamine Ouafa (Dentiste)",
      "phone": "05377-58500",
      "website": "",
      "emails": [],
      "location": "rabat"
    },
    {
      "name": "CENTRE DENTAIRE CLINADENT ( Dr Benlaatmania Mohamed Reda)",
      "phone": "05377-71717",
      "website": "",
      "emails": [],
      "location": "rabat"
    },
    {
      "name": "iSmile Dental Center Dr. Hajji Meriem",
      "phone": "05376-90632",
      "website": "",
      "emails": [],
      "location": "Appt 2, Dental Center Dr. Meriem HAJJI, 65 Av. Sidi Mohamed Ben Abdellah, Rabat 10050"
    },
    {
      "name": "Urgence dentaire Rabat Sourire",
      "phone": "0708-209696",
      "website": "https://www.rabatsourire.ma",
      "emails": [
        "contact@rabatsourire.ma"
      ],
      "location": "1er √©tage, au dessus de pharmacie azhar, Imm 44 Av. Fal Ould Oumeir, Rabat 10090"
    },
    {
      "name": "Dr Aya Malki - Dentiste Rabat Agdal",
      "phone": "0607-499591",
      "website": "http://drayamalki.com",
      "emails": [
        "contact@drayamalki.com",
        "Contact@drayamalki.com"
      ],
      "location": "√©tage 1, Appartement 3, 13 Rue Al Achaari, Rabat 10080"
    },
    {
      "name": "Docteur Saad Lahbabi",
      "phone": "05376-82056",
      "website": "",
      "emails": [],
      "location": "rabat"
    },
    {
      "name": "Dr. El Assili Rachid Chirurgien Dentiste & Implantologiste",
      "phone": "05376-70707",
      "website": "",
      "emails": [],
      "location": "rabat"
    },
    {
      "name": "Oris Dental Center - Dr Fatih El Mehdi - Dentiste Rabat",
      "phone": "05375-71000",
      "website": "https://www.dabadoc.com/ma/esthetique-dentaire/rabat/el-mehdi-fatih",
      "emails": [],
      "location": "face de Carrefour Market Ben Barka, Angle Av. Al Araar et Av. Ben Barka, R√©sidence Dounia A Appt 12 3√©me √©tage En, Rabat 10000"
    },
    {
      "name": "Centre Dentaire DR. AHMED IRAQI - DENTISTE RABAT",
      "phone": "0642-824995",
      "website": "https://dentistrabat.com",
      "emails": [],
      "location": "Appt n2 2e etage, 28 Rue Al Hoceima, Av. Moulay Hassan, Rabat 10020"
    },
    {
      "name": "CENTRE DENTAIRE RABAT - SMILE CENTER",
      "phone": "05372-82417",
      "website": "https://www.centredentairerabatsmilecenter.ma",
      "emails": [
        "contact@centredentairerabatsmilecenter.ma"
      ],
      "location": "2√®me √©tage, CENTRE DENTAIRE RABAT - SMILE CENTER, 1095 Av. Al Massira, Rabat"
    },
    {
      "name": "Centre d‚Äôodontologie P√©diatrique Pr Mustapha EL ALLOUSSI - Rabat",
      "phone": "05377-70078",
      "website": "",
      "emails": [],
      "location": "Au dessus de Dina Ammeublemet, APPT.4, 3 Av. de France, Rabat"
    },
    {
      "name": "Perfect smile rabat",
      "phone": "05372-93992",
      "website": "https://perfectsmilerabat.com",
      "emails": [
        "morjane.perfect@gmail.com"
      ],
      "location": "rabat"
    },
    {
      "name": "Elomari Abdelhafid (Dentiste)",
      "phone": "05377-04597",
      "website": "",
      "emails": [],
      "location": "rabat"
    },
    {
      "name": "Al Hiane Slimane (Dentiste)",
      "phone": "05377-92475",
      "website": "",
      "emails": [],
      "location": "rabat"
    },
    {
      "name": "Cabinet Dr imane Ben dali d'ophtalmologie . Ophtalmologue Rabat",
      "phone": "05372-80528",
      "website": "",
      "emails": [],
      "location": "Rue ibn mouqafaa, immeuble H Appartement 6 , complexe Al Manal , cit√©"
    },
    {
      "name": "Dr Houda Rekkabe",
      "phone": "0623-777804",
      "website": "",
      "emails": [],
      "location": "rabat"
    },
    {
      "name": "cabinet abouzahir",
      "phone": "05372-91968",
      "website": "",
      "emails": [],
      "location": "rabat"
    },
    {
      "name": "Docteur Chirurgien Dentiste Louafi Bouchra",
      "phone": "05372-60201",
      "website": "",
      "emails": [],
      "location": "rabat"
    },
    {
      "name": "Centre Dentaire Belhaj - Dr BELHAJ Hamza - Dentiste Rabat",
      "phone": "05377-22177",
      "website": "http://centredentairebelhaj.net",
      "emails": [
        "belhajdentalcenter@gmail.com",
        "exemple@monsite.com",
        "example@mysite.com"
      ],
      "location": "La perle de la m√©dina Oc√©an, Avenue Maghreb Al Arabi Imm B Bureau B3, 1√©re √©tage Res, Rabat"
    },
    {
      "name": "Dr. Sqalli Khalid",
      "phone": "05377-32327",
      "website": "https://centredentairesqalli.com",
      "emails": [],
      "location": "2√®me √©tage, Dr. Sqalli Khalid, 42 Rue al Mourabitine, Rabat 10020"
    },
    {
      "name": "Dr BENHSAIN Hicham Chirurgien Dentiste",
      "phone": "05377-02288",
      "website": "https://www.drbenhsainhicham.ma",
      "emails": [
        "contact@drbenhsainhicham.ma"
      ],
      "location": "rabat"
    },
    {
      "name": "Centre Dentaire Dr Talssi Jihane",
      "phone": "05377-00182",
      "website": "",
      "emails": [],
      "location": "Cabinet 9 Auto, Hall Rabat I, Angle Avenue HassanII, Rue Congo"
    },
    {
      "name": "Docteur Chirurgien Dentiste Mrani Alaoui Aziz (Cabinet)",
      "phone": "05376-74842",
      "website": "https://espaceortho.com",
      "emails": [
        "mraniaz@yahoo.fr"
      ],
      "location": "rabat"
    },
    {
      "name": "Ebele Dental",
      "phone": "0662-420450",
      "website": "",
      "emails": [],
      "location": "rabat"
    },
    {
      "name": "Benzakour Abdelfattah (Dentiste)",
      "phone": "05377-06051",
      "website": "",
      "emails": [],
      "location": "rabat"
    },
    {
      "name": "Clinique Les Orangers Rabat",
      "phone": "05377-32424",
      "website": "",
      "emails": [],
      "location": "rabat"
    },
    {
      "name": "Docteurs BELKHADIR & ENNAJARY Chirurgiens Dentistes",
      "phone": "0636-124736",
      "website": "",
      "emails": [],
      "location": "rabat"
    },
    {
      "name": "Cabinet Dentaire Docteur Mahmoud Rachid Rabat ( Chirurgien Dentiste - Occlusodontiste )",
      "phone": "0634-147600",
      "website": "",
      "emails": [],
      "location": "entree 7, 7 avenue hassan 2 residence saada 2ieme etage appartement705 Angle avenue mohamed 5, Av. Hassan II, Rabat 10000"
    },
    {
      "name": "Dr Walali Loudiyi Adil Artisan du sourire",
      "phone": "05376-71216",
      "website": "https://www.lesartisansdusourire.com",
      "emails": [
        "orthorabat@gmail.com"
      ],
      "location": "rabat"
    },
    {
      "name": "Dr Belgada Maryem (Dentiste)",
      "phone": "05377-27992",
      "website": "",
      "emails": [],
      "location": "rabat"
    },
    {
      "name": "cabinet dentaire lebbar",
      "phone": "05376-83203",
      "website": "",
      "emails": [],
      "location": "rabat"
    },
    {
      "name": "Centre dentaire Dr HELLI Maria (Pedo Dentiste)",
      "phone": "05376-81057",
      "website": "",
      "emails": [],
      "location": "rabat"
    },
    {
      "name": "Hicham Bourichi (Dentiste)",
      "phone": "05377-10114",
      "website": "",
      "emails": [],
      "location": "rabat"
    },
    {
      "name": "Ennamli Tayeb (Dentiste)",
      "phone": "05372-04371",
      "website": "",
      "emails": [],
      "location": "rabat"
    },
    {
      "name": "Dr Amrharhe Abdellatif - Dentiste",
      "phone": "05377-94415",
      "website": "",
      "emails": [],
      "location": "rabat"
    },
    {
      "name": "Sba√Ø Dentaire (Centre Dentaire √† Casablanca)",
      "phone": "05222-36921",
      "website": "https://sbaidentaire.com",
      "emails": [],
      "location": "rabat"
    },
    {
      "name": "Centre Dentaire Maarif - Docteur Wafaa MAANANI & Dr Mly Ismail AFIF -Yacoub Mansour-Casablanca",
      "phone": "05222-55051",
      "website": "https://www.mondentiste.ma/moulay-ismail-afif-2536.htm",
      "emails": [
        "contact@mondentiste.ma",
        "moulayismailafif@gmail.com"
      ],
      "location": "rabat"
    },
    {
      "name": "Pharmacie de l'Ocean",
      "phone": "05372-02176",
      "website": "",
      "emails": [],
      "location": "rabat"
    },
    {
      "name": "Dentiglow dental center - Rabat - centre dentaire",
      "phone": "05377-37350",
      "website": "https://dentiglow.ma",
      "emails": [
        "contact@dentiglow.ma"
      ],
      "location": "Imm 6, r√©sidence Attissir, Angle rue Mouahidine et rue Erriche, N3 Av. Moulay Hassan"
    },
    {
      "name": "International Smile Clinic - Clinique Dentaire Rabat",
      "phone": "05375-63261",
      "website": "https://www.isc-rabat.com",
      "emails": [
        "contact@isc.ma"
      ],
      "location": "Marjane Market, Angle Avenue Al Melia, Rue Meziata, Rabat 10170"
    },
    {
      "name": "Dentiste Chaimae Dakka",
      "phone": "05376-53636",
      "website": "",
      "emails": [],
      "location": "rabat"
    },
    {
      "name": "Jabbour Aziz (Dentiste)",
      "phone": "05372-06456",
      "website": "https://www.mondentiste.ma/aziz-jabbour-4639.htm",
      "emails": [
        "contact@mondentiste.ma"
      ],
      "location": "Appt.10, 10060, 406 Av. Hassan II, Rabat 10060"
    },
    {
      "name": "Dr Berrada Amal (Dentiste)",
      "phone": "05377-09201",
      "website": "",
      "emails": [],
      "location": "18,rue Laos, Av. Hassan II, Rabat 10100"
    },
    {
      "name": "Docteur Chirurgien Dentiste Zekik Samy Karim",
      "phone": "05377-20839",
      "website": "",
      "emails": [],
      "location": "rabat"
    },
    {
      "name": "Docteur Chirurgien Dentiste Lahlou Nabil (Cabinet)",
      "phone": "05377-04696",
      "website": "",
      "emails": [],
      "location": "rabat"
    },
    {
      "name": "Docteur Chirurgien Dentiste Lahrizi Hind (Sayda Alaoui Mhamdi)",
      "phone": "05372-04015",
      "website": "",
      "emails": [],
      "location": "rabat"
    },
    {
      "name": "Elasri Najib (Orthodontiste)",
      "phone": "05372-60629",
      "website": "",
      "emails": [],
      "location": "et Moulay Ahmad Eloukili, 23 angle des rues, Av. Youssef Ben Tachfine, Rabat 10000"
    },
    {
      "name": "Centre Dentaire - Dr Adil Guelzim",
      "phone": "05376-82468",
      "website": "https://orthodontiste-rabat.com",
      "emails": [
        "contact@centre-dentaire-agdal.com",
        "cda.dentiste.rabat@gmail.com"
      ],
      "location": "rabat"
    },
    {
      "name": "El Yaagoubi Hind (Dentiste)",
      "phone": "05375-71175",
      "website": "",
      "emails": [],
      "location": "rabat"
    },
    {
      "name": "Centre Dentaire Daoui - Dr Daoui Asmaa - Dentiste - Rabat - El Menzeh - Orthodontiste",
      "phone": "05377-93131",
      "website": "https://centredentairedaoui.com",
      "emails": [],
      "location": "ETG 2 APPT 3, Centre Dentaire Daoui - Dr Daoui Asmaa - Dentiste - Rabat - El Menzeh - Orthodontiste, IMM 730, Rabat"
    },
    {
      "name": "Cabinet Dentaire Dr. Mrabou Meriem",
      "phone": "0530-056713",
      "website": "",
      "emails": [],
      "location": "48 BLOC DQ KOUASS , Rue Massira, Appt 1, CYM RABAT"
    },
    {
      "name": "Cabinet Dr DOUHAOUI BRAHIM",
      "phone": "05372-94444",
      "website": "",
      "emails": [],
      "location": "rabat"
    },
    {
      "name": "Cabinet dentaire CYM Dr Imane BOUNAKHLA",
      "phone": "05372-94504",
      "website": "",
      "emails": [],
      "location": "rabat"
    },
    {
      "name": "Dr Mokhtar Benabdelkrim",
      "phone": "0769-537257",
      "website": "https://www.ledentiste-rabat.ma/nos-specialites",
      "emails": [
        "contact@www.ledentiste-rabat.ma",
        "contact@ledentiste-rabat.ma"
      ],
      "location": "rabat"
    },
    {
      "name": "Berrahou Ikram (Dentiste)",
      "phone": "05372-93114",
      "website": "",
      "emails": [],
      "location": "rabat"
    },
    {
      "name": "Dentiste sur Rabat - Dr ALI BAKKEN",
      "phone": "0530-899877",
      "website": "https://dentisto.ma/rendez-vous/docteurs/dr-bakken-ali-1830",
      "emails": [],
      "location": "2EME ETAGE APP 5, Dentiste sur Rabat - Dr ALI BAKKEN, N 1090 Av. Al Massira, Rabat"
    },
    {
      "name": "Cabinet Dr Youness Talhi",
      "phone": "05377-90179",
      "website": "",
      "emails": [],
      "location": "n761, Cabinet Dr Youness Talhi, j5 Av. Al Massira, Rabat"
    },
    {
      "name": "Cabinet Dentaire & d'Orthodontie Dr Nadia Belhaj",
      "phone": "05376-95798",
      "website": "",
      "emails": [],
      "location": "A cot√© du Terminus Tramway Yacoub Mansour, en face de la banque populaire Av. Assalam, Kamra, Rabat 10120"
    },
    {
      "name": "Centre Dentaire Emrani",
      "phone": "0530-888817",
      "website": "",
      "emails": [],
      "location": "46 angle mecca appt 2 √©tage 2 av Moulay Ismail, Hassan, Rabat 10005"
    },
    {
      "name": "Jourani Lamia (Dentiste)",
      "phone": "05372-06661",
      "website": "",
      "emails": [],
      "location": "rabat"
    },
    {
      "name": "Boumediane Hind (Dentiste)",
      "phone": "05372-60794",
      "website": "",
      "emails": [],
      "location": "rabat"
    },
    {
      "name": "Laboratory AB Dentaire",
      "phone": "05372-01092",
      "website": "",
      "emails": [],
      "location": "rabat"
    },
    {
      "name": "Centre dentaire Dr Cha√Ømae LEZREK",
      "phone": "0706-076625",
      "website": "",
      "emails": [],
      "location": "2√®me √©tage Appt 6, Oc√©an, RES.ASSAFAE, 8 Rue Istanbul"
    },
    {
      "name": "Cabinet Dr Wissal BOUIDIDA",
      "phone": "05376-57091",
      "website": "",
      "emails": [],
      "location": "Cabinet Dr Wissal BOUIDIDA, El Azrak, Villa, N"
    },
    {
      "name": "Claire Dent",
      "phone": "05377-26264",
      "website": "",
      "emails": [],
      "location": "Claire Dent, 6, Rue Ghandi, 1"
    },
    {
      "name": "Centre dentaire dr ahidoun Imane",
      "phone": "",
      "website": "",
      "emails": [],
      "location": "rabat"
    },
    {
      "name": "Ammor Mohamed Adnane (Dentiste)",
      "phone": "05377-37196",
      "website": "",
      "emails": [],
      "location": "rabat"
    },
    {
      "name": "Berrada Hassania (Dentiste)",
      "phone": "05377-07599",
      "website": "",
      "emails": [],
      "location": "220, Avenue Hassan Ii, Diour Jamaa, 1"
    },
    {
      "name": "Jabour Saliha (Dentiste)",
      "phone": "05377-04404",
      "website": "",
      "emails": [],
      "location": "rabat"
    },
    {
      "name": "Centre dentaire agdal",
      "phone": "0707-754554",
      "website": "https://orthodontiste-rabat.com",
      "emails": [
        "contact@centre-dentaire-agdal.com",
        "cda.dentiste.rabat@gmail.com"
      ],
      "location": "3eme √©tage, appartement, 59 Av. Fal Ould Oumeir, Rabat"
    },
    {
      "name": "Dr. EL FASSI Maria & Dr. EL FASSI Hind - Chirurgiens Dentistes",
      "phone": "05377-38102",
      "website": "",
      "emails": [],
      "location": "rabat"
    },
    {
      "name": "Orthodontiste Choukri Elhassan",
      "phone": "05376-99546",
      "website": "",
      "emails": [],
      "location": "rabat"
    },
    {
      "name": "Centre de Consultations et de Traitements Dentaires",
      "phone": "05377-79561",
      "website": "",
      "emails": [],
      "location": "rabat"
    },
    {
      "name": "Hestia dental center",
      "phone": "0530-069514",
      "website": "https://hestiadentalcenter.com",
      "emails": [
        "contact@hestiadentalcenter.com"
      ],
      "location": "RES.YASMINA, Appt.3, IMM.28 Av. de France, Rabat 10080"
    },
    {
      "name": "H√¥pital Cheikh Zayd",
      "phone": "05376-86868",
      "website": "http://hcz.ma",
      "emails": [
        "contact@hcz.ma",
        "Rdv.cons@hcz.ma"
      ],
      "location": "rabat"
    },
    {
      "name": "Chirurgien dentiste Rabat - Dr Asmaa Benmessaoud",
      "phone": "05376-34539",
      "website": "",
      "emails": [],
      "location": "rabat"
    },
    {
      "name": "Immeuble Koutoubia N¬∞12",
      "phone": "0663-065800",
      "website": "",
      "emails": [],
      "location": "rabat"
    },
    {
      "name": "cabinet dentaire des far",
      "phone": "",
      "website": "",
      "emails": [],
      "location": "rabat"
    }
  ]
}