{
  "metadata": {
    "businessType": "dentist in",
    "location": "fes",
    "totalResults": 139,
    "scrapedAt": "2025-08-18T03:18:06.720Z",
    "scrapedAtLocal": "8/18/2025, 4:18:06 AM",
    "isAutoSave": false
  },
  "results": [
    {
      "name": "Dr Sossey Alaoui Ghita",
      "phone": "0532-060424",
      "website": "",
      "emails": [],
      "location": "Dr Sossey Alaoui Ghita, Rue matran khalil matran, Espace Noor Fès 1 er étage bureau 3, Fès 30000"
    },
    {
      "name": "Centre dentaire Premium 7j/7 ( sur rendez-vous)",
      "phone": "0624-806584",
      "website": "",
      "emails": [],
      "location": "fes"
    },
    {
      "name": "Dr. Serroukh Khalid, Chirurgien Dentiste Fes Dentiste Fès Pedodontiste & implantologie Fes",
      "phone": "05356-03678",
      "website": "",
      "emails": [],
      "location": "Saada En dessus de carly, 24 avenue saint louis bureau meftaha, n13, Fès 31000"
    },
    {
      "name": "Cabinet Dentaire Docteur Hicham Ouenniche",
      "phone": "0666-052175",
      "website": "",
      "emails": [],
      "location": "fes"
    },
    {
      "name": "Dentiste Dr. Mouad Benslimane | Cabinet du Docteur Chirurgien Dentiste à Fès",
      "phone": "05356-24287",
      "website": "https://dentistefes.com",
      "emails": [],
      "location": "4ème Etage, sur la devanture du café Paul, Espace officex, Immeuble Café Maison H"
    },
    {
      "name": "Centre dentaire agdal",
      "phone": "0707-754554",
      "website": "",
      "emails": [],
      "location": "fes"
    },
    {
      "name": "Centre Dentaire Dr. Tazi Omar || Fès",
      "phone": "05357-48979",
      "website": "",
      "emails": [],
      "location": "fes"
    },
    {
      "name": "Dr Kenza Moukhlesse Dentiste Fes",
      "phone": "05356-53531",
      "website": "https://drkenzamoukhlesse.godoc.ma",
      "emails": [],
      "location": "3 ème étage, Plaza, Rue Al Kandar avenue Al Hoceima immeuble Health, Fès 30000"
    },
    {
      "name": "Dr. Hinchi Islah IH DENTAL CENTER الدكتورة حنشي إصلاح",
      "phone": "0532-135656",
      "website": "",
      "emails": [],
      "location": "fes"
    },
    {
      "name": "Cabinet d'orthodontie Dr. Said TLEMCANI",
      "phone": "05356-52080",
      "website": "",
      "emails": [],
      "location": "fes"
    },
    {
      "name": "cabinet dentaire Dr.Sara BCHI",
      "phone": "0603-710593",
      "website": "",
      "emails": [],
      "location": "1, 1 er étage , bureau 2, cabinet dentaire Dr.Sara BCHI"
    },
    {
      "name": "Docteur Chirurgien Dentiste Fadili Souad (Cabinet)",
      "phone": "05359-32261",
      "website": "",
      "emails": [],
      "location": "fes"
    },
    {
      "name": "Cabinet dentaire dr hicham ben maajouz",
      "phone": "0661-384805",
      "website": "",
      "emails": [],
      "location": "fes"
    },
    {
      "name": "Cabinet dentaire Dr Elyaagoubi Nassim",
      "phone": "05356-40889",
      "website": "",
      "emails": [],
      "location": "2eme etage, Imm.1-A. Appt.4, Cabinet dentaire Dr Elyaagoubi Nassim, Fès 30000"
    },
    {
      "name": "Centre Dentaire Fez City Smile",
      "phone": "05356-44067",
      "website": "",
      "emails": [],
      "location": "fes"
    },
    {
      "name": "Centre Dentaire Mejbar",
      "phone": "0624-244546",
      "website": "",
      "emails": [],
      "location": "Appartement 13, 2 ème étage, Résidence Badr, 62 Boulevard Med V"
    },
    {
      "name": "Cabinet Dentaire - Dr CHERRATE El Mehdi",
      "phone": "05356-95447",
      "website": "",
      "emails": [],
      "location": "Près de Mosquée Attakoua, N 1, Lotissement Bahij, Ain chkf"
    },
    {
      "name": "Cabinet Dentaire Dr. Taibi",
      "phone": "0668-621724",
      "website": "",
      "emails": [],
      "location": "fes"
    },
    {
      "name": "Dr Fatima Zahra Chraibi ,Centre Dentaire Chraibi",
      "phone": "0702-171757",
      "website": "",
      "emails": [],
      "location": "3ème étage, Bureaux Al Abrar, Boulevard Abdellah Chafchaouni , Bureau N'14"
    },
    {
      "name": "Dentiste Dr. Elhajjaji wijdane",
      "phone": "0659-974973",
      "website": "https://www.dabadoc.com/ma/esthetique-dentaire/fes/wijdane-elhajjaji",
      "emails": [],
      "location": "1er etage, en face la préfecture de police, makatib manarat fes, Rue Lalla Aicha"
    },
    {
      "name": "CLINIQUE DENTAIRE ZANZIBAR",
      "phone": "05359-41530",
      "website": "",
      "emails": [],
      "location": "fes"
    },
    {
      "name": "Dr SERGHINI Louay Dentiste Fès, Centre Dentaire la Fontaine",
      "phone": "05357-61878",
      "website": "http://centredentairefes.com",
      "emails": [],
      "location": "fes"
    },
    {
      "name": "Centre Dentaire Oued fès Dr. Sara Ahamdane",
      "phone": "05356-32127",
      "website": "",
      "emails": [],
      "location": "Rue 26, N 2, 2ème étage, quartier Oued Fès devant marché Oued Fès"
    },
    {
      "name": "Cabinet Dentaire Dr.Soukaina Slimani",
      "phone": "05356-26696",
      "website": "",
      "emails": [],
      "location": "fes"
    },
    {
      "name": "Centre Dentaire Rais : Dr Rais Samir - Dr Rais Yassine - Dr Sebti Zakia -Dr Rais Kamar",
      "phone": "",
      "website": "",
      "emails": [],
      "location": "fes"
    },
    {
      "name": "Dentist Otman Bellamine",
      "phone": "05356-22787",
      "website": "",
      "emails": [],
      "location": "fes"
    },
    {
      "name": "Cabinet dentaire et d’esthétique IBN ATTYA ABDELLATIF",
      "phone": "05356-25639",
      "website": "",
      "emails": [],
      "location": "fes"
    },
    {
      "name": "Cabinet dentaire Docteur SQUALLI HOUSSAINI KAMAL",
      "phone": "05356-51659",
      "website": "",
      "emails": [],
      "location": "Cabinet dentaire Docteur SQUALLI HOUSSAINI KAMAL, 1 Avenue De Palestine Immeuble Krikech Ville Nouvelle, Fes, Fès 30000"
    },
    {
      "name": "Cabinet Dentaire Dr. Asmae Amrani Hassani | Dentiste à Narjiss, Fès",
      "phone": "05356-19174",
      "website": "",
      "emails": [],
      "location": "fes"
    },
    {
      "name": "Cabinet dentaire Dr. kadri badr",
      "phone": "0666-686646",
      "website": "https://drbadrkadri.com",
      "emails": [
        "drkadribadr@gmail.com"
      ],
      "location": "fes"
    },
    {
      "name": "Cabinet Dentaire Dr Idrissi Azami",
      "phone": "05359-64713",
      "website": "",
      "emails": [],
      "location": "Cabinet Dentaire Dr Idrissi Azami, RUE KM 2 RTE AIN CHKEF, 30000 SECTEUR 0107, Fès 30000"
    },
    {
      "name": "Cabinet dentaire Dr. Meriem Dahhou",
      "phone": "05387-27341",
      "website": "",
      "emails": [],
      "location": "fes"
    },
    {
      "name": "Cabinet dentaire dentaluxe chirurgie lourde orale & réhabilitation fonctionnelle et esthétique Dr.chams-eddine hafdi idrissi",
      "phone": "05356-02482",
      "website": "",
      "emails": [],
      "location": "en face pharmacie sefrioui, À CÔTÉ DE BIM route ain chkef, rue kartaj, Fès 30100"
    },
    {
      "name": "Docteur Chirurgien Dentiste Hanane Mehdi(Cabinet)",
      "phone": "05357-33312",
      "website": "",
      "emails": [],
      "location": "Bur 3, bureaux work space, Ain chkf, Fès 30040"
    },
    {
      "name": "Centre dentaire Dr Hayzoun Issam",
      "phone": "0532-170488",
      "website": "",
      "emails": [],
      "location": "appart 1 RDC, Centre dentaire Dr Hayzoun Issam, quartier ennouzha . Res.Ennouzha, Fès 30000"
    },
    {
      "name": "Centre Dentaire Dr. El Bakali",
      "phone": "0532-174354",
      "website": "",
      "emails": [],
      "location": "fes"
    },
    {
      "name": "Halhoul Lamiae (Dentiste)",
      "phone": "05356-12217",
      "website": "",
      "emails": [],
      "location": "Lot. Ghorfa, Imm. 1, Appt. 5, Rte Ain Smen"
    },
    {
      "name": "Cabinet dentaire Dr. khawla chraibi kaadoud",
      "phone": "0770-090162",
      "website": "",
      "emails": [],
      "location": "Cabinet dentaire Chraibi kaadoud khaoula, Lot Quaraouiyne, Ain chkf, Fès 36122"
    },
    {
      "name": "Dr. Kawtar EL MOUTIA",
      "phone": "05357-48284",
      "website": "https://drkawtarelmoutia.chezledocteur.net",
      "emails": [
        "cabinetdentallife@gmail.com"
      ],
      "location": "Dr. Kawtar EL MOUTIA, ex rue 6, 47, Rue Med Gharit"
    },
    {
      "name": "Dr Karima TAOUTAOU",
      "phone": "",
      "website": "",
      "emails": [],
      "location": "Dr Karima TAOUTAOU, 2 LOT ASMAE, Ain chkf, Fès 36122"
    },
    {
      "name": "Centre dentaire Route d'Immouzer",
      "phone": "05359-60296",
      "website": "",
      "emails": [],
      "location": "fes"
    },
    {
      "name": "Cabinet dentaire Dr benhammou fatima-ezzahra",
      "phone": "0617-050663",
      "website": "",
      "emails": [],
      "location": "Bureaux, yassine, Ave Moulay Rachid, Fès 30050"
    },
    {
      "name": "Centre Dentaire Abdellaoui dr Abdellaoui Salmane El Khair",
      "phone": "0660-456444",
      "website": "",
      "emails": [],
      "location": "fes"
    },
    {
      "name": "Benbrahim Mohammed Karim",
      "phone": "05356-20543",
      "website": "",
      "emails": [],
      "location": "fes"
    },
    {
      "name": "Cabinet Dentaire Moon : Dr. Chaïmae Bouchâala",
      "phone": "05359-43671",
      "website": "",
      "emails": [],
      "location": "5ème étage, Espace Mehdaoui, 27,rue brahim Roudani"
    },
    {
      "name": "Cabinet dentaire dr Hind Ziat",
      "phone": "05357-31132",
      "website": "",
      "emails": [],
      "location": "Résidence Fatima Atlas, Avenue moulay rachid, 11 Rte de Sefrou, Fès 30000"
    },
    {
      "name": "Cabinet dentaire Dr Boudraa Zineb",
      "phone": "05359-60082",
      "website": "",
      "emails": [],
      "location": "fes"
    },
    {
      "name": "cabinet dentaire ali elamrani jai",
      "phone": "0661-931443",
      "website": "",
      "emails": [],
      "location": "Dr Sossey Alaoui Ghita, Rue matran khalil matran, Espace Noor Fès 1 er étage bureau 3, Fès 30000"
    },
    {
      "name": "Centre dentaire agdal dr sossé alaoui mohammed",
      "phone": "05357-53546",
      "website": "",
      "emails": [],
      "location": "3eme etage, Centre dentaire agdal dr sossé alaoui mohammed, 83 espace al fadl av des far n15, Fès 30000"
    },
    {
      "name": "Dentiste Aqasbi Ouahi Asmae",
      "phone": "05356-01473",
      "website": "",
      "emails": [],
      "location": "fes"
    },
    {
      "name": "Docteur Chirurgien Dentiste Tarik Ahmed (Cabinet)",
      "phone": "05359-40100",
      "website": "",
      "emails": [],
      "location": "fes"
    },
    {
      "name": "Cabinet de Chirurgie et d'Implantologie dentaire (Dr.LAMGHARI Amine)",
      "phone": "05359-40757",
      "website": "",
      "emails": [],
      "location": "fes"
    },
    {
      "name": "Bensouda Younes (Dentiste)",
      "phone": "05359-30963",
      "website": "https://centredentairebensouda.com",
      "emails": [],
      "location": "fes"
    },
    {
      "name": "Fares Mounir (Dentiste)",
      "phone": "05357-26767",
      "website": "",
      "emails": [],
      "location": "fes"
    },
    {
      "name": "Docteur Chirurgien Dentiste Squalli Houssaini Saad",
      "phone": "05356-52767",
      "website": "",
      "emails": [],
      "location": "Docteur Chirurgien Dentiste Squalli Houssaini Saad, 13 Rue Abbass Mssaadi, Fes, Fès 30000"
    },
    {
      "name": "Dr Akasbi Mohammed",
      "phone": "05356-53250",
      "website": "",
      "emails": [],
      "location": "fes"
    },
    {
      "name": "Docteur Chirurgien Dentiste Yazoughe Oussama (Cabinet)",
      "phone": "05356-14742",
      "website": "",
      "emails": [],
      "location": "fes"
    },
    {
      "name": "Centre dentaire Dr. Khadija Alami",
      "phone": "05356-43622",
      "website": "https://www.dentistefes.ma",
      "emails": [],
      "location": "Appartement N 10, Centre dentaire Dr. Khadija Alami, Immeuble C Av. DES FORCES ARMEES ROYALES, Fès 30003"
    },
    {
      "name": "Docteur Chirurgien Dentiste Slaoui (Karim)",
      "phone": "05356-50143",
      "website": "https://ledentiste.ma/cabinet-dentaire-au-maroc/slaoui-2",
      "emails": [],
      "location": "fes"
    },
    {
      "name": "NATURAL SMILE DENTAL OFFICE by Dr Saadeddine HAFDI IDRISSI",
      "phone": "05356-14898",
      "website": "",
      "emails": [],
      "location": "19 Av ouafae, Narjiss C, Rce Amal RDC, Fès 30000"
    },
    {
      "name": "Clinique dentaire Cartier",
      "phone": "0532-065565",
      "website": "",
      "emails": [],
      "location": "Clinique dentaire Cartier, côté du cafe Lost, Bd Allal ben abdallah residence el youbia 5 eme étage à, Fes"
    },
    {
      "name": "Clinique dentaire - Dr. Labaq Youssef",
      "phone": "0532-168678",
      "website": "",
      "emails": [],
      "location": "5eme étage, Résidence, 10 Lot. Moulins, Bureau 30 Rue Omar Al Idrissi"
    },
    {
      "name": "Centre Dentaire Chefchaouni Dr Tariq FLIS",
      "phone": "05356-42154",
      "website": "",
      "emails": [],
      "location": "N, Centre Dentaire Chefchaouni Dr Tariq FLIS, 59 Bd Abdellah Chafchaouni, Fès 30050"
    },
    {
      "name": "Docteur Acharki Taoufik (orthodontiste) fes",
      "phone": "05359-44798",
      "website": "https://orthodontistefes.ma",
      "emails": [],
      "location": "Bureaux du jardin, appt 8 A coté de la librairie AL FAJR, 55 Ave Mohammed es Slaoui, Fès 30000"
    },
    {
      "name": "Dr. Alami Ouafae, Chirurgien Dentiste",
      "phone": "05356-93599",
      "website": "",
      "emails": [],
      "location": "4 eme étage, espace le moulin, bureau 19 Av des FAR, Fes 30050"
    },
    {
      "name": "Dr Abdallaoui Maane Adnane",
      "phone": "05356-50530",
      "website": "",
      "emails": [],
      "location": "fes"
    },
    {
      "name": "Cabinet dentaire dr Malak Maazouzi",
      "phone": "0664-451209",
      "website": "",
      "emails": [],
      "location": "2ème étage, bureau n 12, Lot. 3 Av Ibn Atir, Rte aïnou smen"
    },
    {
      "name": "Docteur Chirurgien Dentiste El Farricha Fouad (Cabinet)",
      "phone": "05356-47486",
      "website": "",
      "emails": [],
      "location": "fes"
    },
    {
      "name": "Clinique Dentaire Achchak",
      "phone": "05356-51068",
      "website": "",
      "emails": [],
      "location": "Clinique Dentaire Achchak, 26, Rue Abessalem Serghini, Fès"
    },
    {
      "name": "Cabinet Docteur fouad el khafifi",
      "phone": "05356-25778",
      "website": "",
      "emails": [],
      "location": "fes"
    },
    {
      "name": "Dr Agoumi Meriem Centre Dentaire Annakhil",
      "phone": "05356-07537",
      "website": "",
      "emails": [],
      "location": "Riad Annakhil, 86 lotissement, route d'Imouzzer, Fès 30050"
    },
    {
      "name": "Cabinet Dentaire Dr. Srifi Karim",
      "phone": "05356-26814",
      "website": "",
      "emails": [],
      "location": "fes"
    },
    {
      "name": "Guessous Abdelali (Dentiste)",
      "phone": "05356-51057",
      "website": "",
      "emails": [],
      "location": "fes"
    },
    {
      "name": "Clinique Dentaire Karima El Messaoudi",
      "phone": "05356-93832",
      "website": "",
      "emails": [],
      "location": "fes"
    },
    {
      "name": "Filali Nabih Alae (Dentiste)",
      "phone": "05359-30217",
      "website": "",
      "emails": [],
      "location": "fes"
    },
    {
      "name": "Cabinet dentaire fes Dr Asmaa Meliani",
      "phone": "05356-20909",
      "website": "",
      "emails": [],
      "location": "fes"
    },
    {
      "name": "Centre Dentaire Florence Fès Dr Yahya Raid",
      "phone": "05356-53545",
      "website": "",
      "emails": [],
      "location": "fes"
    },
    {
      "name": "Cabinet Dentaire Dr Jasmin",
      "phone": "0667-058380",
      "website": "",
      "emails": [],
      "location": "n28, bureaux mikou, 52 Ave Allal Ben Abdellah, Fès 30000"
    },
    {
      "name": "Cabinet Dentaire Mutualiste Des Forces Auxiliaires Fes",
      "phone": "05356-22794",
      "website": "",
      "emails": [],
      "location": "fes"
    },
    {
      "name": "Dr Cherif Elkettani Ghita Dentiste Fès",
      "phone": "0636-214189",
      "website": "",
      "emails": [],
      "location": "fes"
    },
    {
      "name": "Dr RAKI Zineb Orthodontiste Fès, Centre Dentaire La Fontaine",
      "phone": "05356-25267",
      "website": "http://centredentairefes.com",
      "emails": [],
      "location": "fes"
    },
    {
      "name": "Centre dentaire Tajmouati",
      "phone": "05356-51480",
      "website": "https://drtajmouati.com/dentaire",
      "emails": [],
      "location": "fes"
    },
    {
      "name": "Cabinet Dentaire | Dr Chaymae Mejahed",
      "phone": "05356-16510",
      "website": "",
      "emails": [],
      "location": "1er étage, bureau 3, Prestige tower, Fes 30000"
    },
    {
      "name": "CABINET DENTAIRE BENHADDOU FES",
      "phone": "05356-81254",
      "website": "",
      "emails": [],
      "location": "bureau N 7 Étage 4, au dessus de magasin Bim, Avenue bel Air, Fès 30000"
    },
    {
      "name": "Cabinet dentaire Dr Yasmine Snah",
      "phone": "05381-92121",
      "website": "",
      "emails": [],
      "location": "Cabinet dentaire Dr Yasmine Snah, N 280, 1 Av. Oran, Fès"
    },
    {
      "name": "Meftah Younes (Dentiste)",
      "phone": "05356-21114",
      "website": "",
      "emails": [],
      "location": "fes"
    },
    {
      "name": "Docteur Chirurgien Dentiste Moulay Ali Fratt Rachi (Cabinet)",
      "phone": "05356-49194",
      "website": "",
      "emails": [],
      "location": "fes"
    },
    {
      "name": "Benslimane Nabil (Dentiste)",
      "phone": "05356-54676",
      "website": "",
      "emails": [],
      "location": "en face du café Maeignon, 17, Rue Med EL Hayani, Bd Med V"
    },
    {
      "name": "Docteur Mahfoud Fouad",
      "phone": "05356-20030",
      "website": "https://centredentairemahfoudfilali.chezledocteur.net",
      "emails": [
        "contact@drmahfoud.com"
      ],
      "location": "Docteur Mahfoud Fouad, Kissariat Cle Rue Larbi Kaghat Ville Nouvelle, Fes, Fès 30000"
    },
    {
      "name": "Centre Dentaire Bouayad",
      "phone": "0532-070127",
      "website": "",
      "emails": [],
      "location": "5ème étage, Bureaux Al Wilaya, Ave Allal Ben Abdellah, Fès 30000"
    },
    {
      "name": "Clinique dentaire Élite Dr Sabai Regragui Abdelhafid",
      "phone": "05359-30960",
      "website": "https://cliniquedentairelite.com",
      "emails": [],
      "location": "fes"
    },
    {
      "name": "Cabinet Dentaire Dr Arabi Amine",
      "phone": "05384-65583",
      "website": "",
      "emails": [],
      "location": "fes"
    },
    {
      "name": "Cabinet Dr Miloudi Houda - chirurgien dentiste",
      "phone": "05356-68889",
      "website": "",
      "emails": [],
      "location": "fes"
    },
    {
      "name": "Docteur Chirurgien Dentiste Cohen Nadia (Cabinet)",
      "phone": "05359-40900",
      "website": "",
      "emails": [],
      "location": "fes"
    },
    {
      "name": "Docteur Chirurgien Dentiste Mikou Hicham (Cabinet)",
      "phone": "05356-54141",
      "website": "",
      "emails": [],
      "location": "fes"
    },
    {
      "name": "Docteur Chirurgien Dentiste Mikou Said",
      "phone": "05356-52164",
      "website": "",
      "emails": [],
      "location": "fes"
    },
    {
      "name": "Docteur Chirurgien Dentiste Hormat Allah Hanae (Cabinet)",
      "phone": "05356-58400",
      "website": "",
      "emails": [],
      "location": "fes"
    },
    {
      "name": "Docteur Chirurgien Dentiste Ismaili Alaoui Charafa",
      "phone": "05356-40005",
      "website": "",
      "emails": [],
      "location": "fes"
    },
    {
      "name": "Cabinet dentaire Abbou",
      "phone": "0532-078272",
      "website": "",
      "emails": [],
      "location": "fes"
    },
    {
      "name": "Docteur Chirurgien Dentiste Zahraoui Mohammed (Cabinet)",
      "phone": "05356-43063",
      "website": "",
      "emails": [],
      "location": "fes"
    },
    {
      "name": "Docteur Chirurgien Dentiste Salima Tajri",
      "phone": "05357-30923",
      "website": "",
      "emails": [],
      "location": "Docteur Chirurgien Dentiste Salima Tajri, Zohor 1, 210 Av. Oran, Fès 30000"
    },
    {
      "name": "Polyclinique Atlas Fes Maroc",
      "phone": "05356-41697",
      "website": "",
      "emails": [],
      "location": "chez polyclinique Atlas, Ave Moulay Rachid, Rte de Sefrou, Fès 30000"
    },
    {
      "name": "Docteur Chirurgien Dentiste Tazi Karima (Cabinet)",
      "phone": "05356-19591",
      "website": "",
      "emails": [],
      "location": "fes"
    },
    {
      "name": "Dentiste El Jay",
      "phone": "05356-19461",
      "website": "",
      "emails": [],
      "location": "fes"
    },
    {
      "name": "Docteur Chirurgien Dentiste Khalil Laila (Cabinet)",
      "phone": "05357-33182",
      "website": "",
      "emails": [],
      "location": "fes"
    },
    {
      "name": "Ammour Saïd",
      "phone": "05356-21835",
      "website": "",
      "emails": [],
      "location": "fes"
    },
    {
      "name": "Dr Es-sathi Oussama (chirurgien dentiste)",
      "phone": "05356-45908",
      "website": "",
      "emails": [],
      "location": "fes"
    },
    {
      "name": "Chirurgien Dentiste Mohamed Tazi",
      "phone": "05356-95152",
      "website": "https://www.mohamedtazi.ma",
      "emails": [
        "contact@mohamed-tazi.ma"
      ],
      "location": "3 A, lotiss. Mabrouka, av. Mohammed VI, hay Badr"
    },
    {
      "name": "Dr Benslimane Ismail / BenSmile center",
      "phone": "05359-31189",
      "website": "https://dentistefes.com",
      "emails": [],
      "location": "en face du café Maeignon, 17, Rue Med EL Hayani, Bd Med V"
    },
    {
      "name": "Polaris Dental Center ( Dr. Khaffouli Abdellah Amine)",
      "phone": "05356-81966",
      "website": "",
      "emails": [],
      "location": "etg 1, Merja, Lot Bab l'Atlas, Bur 3"
    },
    {
      "name": "Centre De Santé Sidi Brahim",
      "phone": "",
      "website": "",
      "emails": [],
      "location": "Centre De Santé Sidi Brahim, Medical Dispensary, Sidi Brahim Medical Dispensary, Fès 30050"
    },
    {
      "name": "Cabinet Dentaire Dr Ghizlane ABBAS",
      "phone": "05359-32565",
      "website": "",
      "emails": [],
      "location": "2ème étage, Résidence Platinium, Bureau N20, av des FAR"
    },
    {
      "name": "ISTD Fès - Ecole Africaine de Prothésistes Dentaires",
      "phone": "05357-31090",
      "website": "https://istd.ma",
      "emails": [],
      "location": "fes"
    },
    {
      "name": "Docteur Chirurgien Dentiste Filali Baba Younes (Cabinet)",
      "phone": "05356-58769",
      "website": "",
      "emails": [],
      "location": "fes"
    },
    {
      "name": "Centre dentaire EL-ALJ",
      "phone": "",
      "website": "",
      "emails": [],
      "location": "Centre dentaire EL-ALJ, Lot Belair, 35, Fes 30000"
    },
    {
      "name": "Cabinet Dentaire Dr Imane Zemmou",
      "phone": "05356-41181",
      "website": "",
      "emails": [],
      "location": "fes"
    },
    {
      "name": "Debbarh Abderrafie (Dentiste)",
      "phone": "05356-52067",
      "website": "",
      "emails": [],
      "location": "fes"
    },
    {
      "name": "Centre Dentaire Dr. Marbouh Amine",
      "phone": "0532-002351",
      "website": "https://centredentairemarbouh.com",
      "emails": [],
      "location": "38,Bd Mohamed V, Rés Salma II- 3éme Etage , N"
    },
    {
      "name": "DR OUALI Orthodontiste FES Pedodontiste '' ESPACE DENTAIRE OUALI 2 ''",
      "phone": "0660-194599",
      "website": "",
      "emails": [],
      "location": "fes"
    },
    {
      "name": "Cabinet Dentaire Dr. Saad Guennouni Hassani",
      "phone": "05356-42121",
      "website": "",
      "emails": [],
      "location": "1er étage, Cabinet Dentaire Dr. Saad Guennouni Hassani, av. saint louis, Espace Bureaux Rayan N"
    },
    {
      "name": "Centre de blanchiment JAD",
      "phone": "0700-792359",
      "website": "",
      "emails": [],
      "location": "fes"
    },
    {
      "name": "Docteur Chirurgien Dentiste Kenza BENKIRANE",
      "phone": "05359-40101",
      "website": "",
      "emails": [],
      "location": "fes"
    },
    {
      "name": "Centre Dentaire Belhaj : Dr Belhaj Lakhdar Simohamed",
      "phone": "0532-086717",
      "website": "",
      "emails": [],
      "location": "fes"
    },
    {
      "name": "Cabinet dentaire Docteur Mizab Chaymae",
      "phone": "05357-29221",
      "website": "",
      "emails": [],
      "location": "31, résidence Al Manal 1, benssouda, Fès 30030"
    },
    {
      "name": "Dr Abdelkrim Felhine",
      "phone": "05359-32727",
      "website": "",
      "emails": [],
      "location": "fes"
    },
    {
      "name": "Cabinet dentaire Dr. GRAOUI Fatima Ezzahra",
      "phone": "05356-09077",
      "website": "",
      "emails": [],
      "location": "fes"
    },
    {
      "name": "Docteur Chirurgien Dentiste El Harti Amal (Cabinet)",
      "phone": "05356-54054",
      "website": "",
      "emails": [],
      "location": "1er étage, Appartement 4, 14 Av. Hassan II, Fès 30050"
    },
    {
      "name": "Atlas Fés",
      "phone": "05356-18915",
      "website": "",
      "emails": [],
      "location": "fes"
    },
    {
      "name": "Benmoussa Nabil (Dentiste)",
      "phone": "05356-41313",
      "website": "",
      "emails": [],
      "location": "fes"
    },
    {
      "name": "Dr. Otman BENJELLOUN",
      "phone": "05356-44944",
      "website": "",
      "emails": [],
      "location": "fes"
    },
    {
      "name": "Benkirane Abdeltif (Dentiste)",
      "phone": "05356-23474",
      "website": "",
      "emails": [],
      "location": "fes"
    },
    {
      "name": "Maroc dentaire benjelloun",
      "phone": "05356-21322",
      "website": "",
      "emails": [],
      "location": "fes"
    },
    {
      "name": "Docteur Chirurgien Dentiste Benslimane Adil",
      "phone": "05356-52371",
      "website": "",
      "emails": [],
      "location": "fes"
    },
    {
      "name": "Dr Anas Benjelloun Touimi, Dentiste",
      "phone": "05356-26245",
      "website": "",
      "emails": [],
      "location": "fes"
    },
    {
      "name": "Benjelloun Marouane (Dentiste)",
      "phone": "05357-30386",
      "website": "",
      "emails": [],
      "location": "fes"
    },
    {
      "name": "Benzakour Majid (Orthodontiste)",
      "phone": "05356-53137",
      "website": "",
      "emails": [],
      "location": "fes"
    },
    {
      "name": "Docteur Orthodontiste Belkziz Sawsan (Cabinet)",
      "phone": "05359-40238",
      "website": "",
      "emails": [],
      "location": "5, Résidence Mégapole Office, Avenue Allal Ben Abdellah, Fès 30000"
    },
    {
      "name": "Boughali Yasmina (Dentiste)",
      "phone": "05359-44090",
      "website": "",
      "emails": [],
      "location": "fes"
    },
    {
      "name": "DR Bensaid Kheireddine (Dentiste)",
      "phone": "05359-44529",
      "website": "",
      "emails": [],
      "location": "fes"
    }
  ]
}