{
  "metadata": {
    "businessType": "website agenices in",
    "location": "fes",
    "totalResults": 80,
    "scrapedAt": "2025-08-18T17:43:10.097Z",
    "scrapedAtLocal": "8/18/2025, 6:43:10 PM",
    "isAutoSave": true
  },
  "results": [
    {
      "name": "Fesweb",
      "phone": "05356-51358",
      "website": "https://www.fesweb.net",
      "emails": [],
      "location": "fes"
    },
    {
      "name": "Fes Marketing Service Agence de Communication",
      "phone": "05356-45103",
      "website": "https://fes-marketing.net",
      "emails": [
        "commercial@fes-marketing.net",
        "contact@fes-marketing.net"
      ],
      "location": "Fes Marketing Service Agence de Communication, cinéma astor, Bureau 206 2 eme étage Bureaux Noor Avenue slaoui et rue hussine khaddar centre ville à coté de, Fès 30000"
    },
    {
      "name": "Arti web",
      "phone": "0532-432066",
      "website": "https://artiweb.ma",
      "emails": [
        "contact@artiweb.ma"
      ],
      "location": "fes"
    },
    {
      "name": "Appbox",
      "phone": "0690-402020",
      "website": "",
      "emails": [],
      "location": "30050, Maroc, Rue de Libye, Fes 30000"
    },
    {
      "name": "Inventis",
      "phone": "05356-21314",
      "website": "http://inventis.ma",
      "emails": [
        "contact@inventis.ma"
      ],
      "location": "fes"
    },
    {
      "name": "Webmarko",
      "phone": "0661-511183",
      "website": "",
      "emails": [],
      "location": "Webmarko, Avenue Bir Anzarane Résidence Nour 1er Etage Bureau N 9 Centre Ville, 30000, Morocco"
    },
    {
      "name": "Screenday",
      "phone": "0532-001024",
      "website": "https://screenday.ma",
      "emails": [],
      "location": "6EM ÉTAGE , BUREAU N 35, Screenday, RÉSIDENCE LYOUBIA"
    },
    {
      "name": "Marweb",
      "phone": "0646-166236",
      "website": "https://marweb.com",
      "emails": [],
      "location": "Marweb, bureaux zineb, Rue Allal Loudiyi, Fès 30000"
    },
    {
      "name": "Mureso Agence de communication et de Marketing digital a Fes | Communication digitale FES",
      "phone": "0621-530201",
      "website": "https://mureso.com",
      "emails": [],
      "location": "fes"
    },
    {
      "name": "Metagroup création site web fés",
      "phone": "0708-023048",
      "website": "https://metagroup.ma",
      "emails": [],
      "location": "fes"
    },
    {
      "name": "Hilal Digital - Agence Digital Marketing Fès",
      "phone": "0661-607311",
      "website": "https://hilaldigital.com",
      "emails": [],
      "location": "fes"
    },
    {
      "name": "NL-Digital AGENCY FES",
      "phone": "0532-088373",
      "website": "https://nl-digitalagency.com",
      "emails": [],
      "location": "NL-Digital AGENCY FES, Bureau Moulay Slimane, 9 Ave St Louis, Fès 30000"
    },
    {
      "name": "Devpub Solution : Fès Marketing digital Service & Communication Agence de marketing digitale à Fès",
      "phone": "0663-351816",
      "website": "https://www.devpub-solution.com",
      "emails": [],
      "location": "Espace RAYANE 2, 7Etage, Lotissement Prestigia Lot FC08, Champs de course"
    },
    {
      "name": "Digit-On agence digital à Fes",
      "phone": "05356-95908",
      "website": "https://digiton.ma",
      "emails": [
        "contact@digiton.ma"
      ],
      "location": "Bur 26, 6 Situé en face du café le Six, Résidence Mohamed 6, Av. Mohammed Bahnini"
    },
    {
      "name": "isweb",
      "phone": "0532-042566",
      "website": "",
      "emails": [],
      "location": "Bureau 4, 420 RUE LAIMOUNE, ETG 2, Fes 30000"
    },
    {
      "name": "Digital Développement",
      "phone": "0603-282812",
      "website": "https://www.digitaldeveloppement.net",
      "emails": [],
      "location": "fes"
    },
    {
      "name": "Rythme Media Fes - Création site web Fes - Agence web Fes",
      "phone": "0605-462993",
      "website": "https://www.rythmedia.com/agence-web-fes",
      "emails": [],
      "location": "Rythme Media Fes - Création site web Fes - Agence web Fes, résidence salma 2, Av. Mohammed V, Fès 30000"
    },
    {
      "name": "FUTUR DEVELOPPEMENT",
      "phone": "05359-31973",
      "website": "",
      "emails": [],
      "location": "fes"
    },
    {
      "name": "Agence Web GetDigital Fes",
      "phone": "0668-564233",
      "website": "https://getdigital.ma",
      "emails": [],
      "location": "espace El imane, Bureau numéro 16, 3eme étage, Rue Ibn Rochd"
    },
    {
      "name": "Medinaclick",
      "phone": "0688-780770",
      "website": "",
      "emails": [],
      "location": "fes"
    },
    {
      "name": "DUPA MEDIA - Agence de Marketing Digital",
      "phone": "0662-415542",
      "website": "https://www.dupamedia.com",
      "emails": [
        "contact@dupamedia.com"
      ],
      "location": "fes"
    },
    {
      "name": "Imag'in Creative : Agence Web, Publicité et Communication",
      "phone": "05356-53985",
      "website": "",
      "emails": [],
      "location": "Bureaux Ibn Yassin à côté de l, Institut francais, Ave Lalla Hasnae, Fès 30050"
    },
    {
      "name": "Fouad Web",
      "phone": "0675-942010",
      "website": "https://fouadweb.com",
      "emails": [],
      "location": "fes"
    },
    {
      "name": "DELTA WEB",
      "phone": "",
      "website": "https://deltawebhost.com",
      "emails": [],
      "location": "fes"
    },
    {
      "name": "Weboost",
      "phone": "0663-740143",
      "website": "https://www.weboost.ma",
      "emails": [
        "Contact@weboost.ma",
        "contact@weboost.ma"
      ],
      "location": "Weboost, N69,2 , Avenue Saint Louis"
    },
    {
      "name": "Creative Web",
      "phone": "0687-919443",
      "website": "",
      "emails": [],
      "location": "fes"
    },
    {
      "name": "Luxacom Agence web et photographie",
      "phone": "0660-009444",
      "website": "",
      "emails": [],
      "location": "fes"
    },
    {
      "name": "CreaCom : Agence de communication digitale",
      "phone": "0635-594544",
      "website": "https://creacom.ma",
      "emails": [],
      "location": "International Private School of Technology, Rue Al khalil, Av Ibn Athir, Fès 30040"
    },
    {
      "name": "YO Digital - Agence Marketing Digital",
      "phone": "0661-659353",
      "website": "https://yodigital.ma",
      "emails": [],
      "location": "YO Digital - Agence Marketing Digital, à côté de la salle Nausika, 16 Av. Iben Athir, Fès 30000"
    },
    {
      "name": "infomark",
      "phone": "0661-602412",
      "website": "https://infomark.ma",
      "emails": [
        "contact@infomark.ma"
      ],
      "location": "fes"
    },
    {
      "name": "Orange Ben Souda",
      "phone": "",
      "website": "",
      "emails": [],
      "location": "Orange Ben Souda, Lotissement Belair 5 Magasin 1 Bensouda, Saiss, Fes"
    },
    {
      "name": "Studio Web",
      "phone": "0699-417196",
      "website": "",
      "emails": [],
      "location": "fes"
    },
    {
      "name": "Labowebtech - Agence Web et Communication Digitale au Maroc",
      "phone": "0661-758182",
      "website": "https://labowebtech.com",
      "emails": [],
      "location": "fes"
    },
    {
      "name": "Référencement Maroc SEO SARL",
      "phone": "05356-16233",
      "website": "https://marocseo.com",
      "emails": [],
      "location": "fes"
    },
    {
      "name": "Digital Growth Powered by Ethila Company",
      "phone": "0689-188735",
      "website": "",
      "emails": [],
      "location": "fes"
    },
    {
      "name": "Smart Action",
      "phone": "0679-602866",
      "website": "https://smartaction.ma",
      "emails": [
        "webmaster@smartaction.ma"
      ],
      "location": "Rue Assilah, Moulins Idrissia, Bureau Andalouse,5 ème étage N41"
    },
    {
      "name": "Altek Technologies",
      "phone": "05357-31094",
      "website": "https://www.altek.ma",
      "emails": [],
      "location": "ETG5 Bureau 34, Altek Technologies, 75 Rue Al Hoceima, Fès 30000"
    },
    {
      "name": "NassimSEO Création Site Web",
      "phone": "0669-947515",
      "website": "https://nassimseo.com/creation-site-web-maroc",
      "emails": [
        "contact@nassimseo.com"
      ],
      "location": "NR 411, TGHAT, LOTS RIAD LAYMOUN, Fes 30100"
    },
    {
      "name": "Digitech Assistance",
      "phone": "0532-060403",
      "website": "",
      "emails": [],
      "location": "fes"
    },
    {
      "name": "Quicksite by Getweb",
      "phone": "0698-028591",
      "website": "https://getweb.ma",
      "emails": [],
      "location": "en face ferme chraibi, Platinum agency wafae 4 route sefrou magasin, n3, Fes 30000"
    },
    {
      "name": "MAROCRANK",
      "phone": "0664-817088",
      "website": "https://www.marocrank.com",
      "emails": [],
      "location": "fes"
    },
    {
      "name": "Cabinet ABIsoft",
      "phone": "0660-972646",
      "website": "https://www.abisoft.ma",
      "emails": [],
      "location": "Cabinet ABIsoft, Rue Abdelkhalek Tores, Printemps bureau, 1ère Étage Bureau N"
    },
    {
      "name": "Webeasy",
      "phone": "",
      "website": "",
      "emails": [],
      "location": "fes"
    },
    {
      "name": "Basha Group",
      "phone": "05357-33204",
      "website": "https://basha.ma",
      "emails": [
        "a.mounir@basha.ma",
        "o.salma@basha.ma",
        "d.ibtissame@basha.ma"
      ],
      "location": "fes"
    },
    {
      "name": "VOIPTALKPRO",
      "phone": "0665-259663",
      "website": "https://voiptalkpro.ma",
      "emails": [],
      "location": "fes"
    },
    {
      "name": "NewDev Maroc",
      "phone": "05356-50757",
      "website": "https://www.newdevmaroc.com",
      "emails": [
        "contact@newdevmaroc.com"
      ],
      "location": "fes"
    },
    {
      "name": "Vyconsulting",
      "phone": "0631-600468",
      "website": "https://vyconsulting-group.com",
      "emails": [],
      "location": "3ème étage, Bureau Al Abrar, Bd Abdellah Chafchaouni, Fes 30050"
    },
    {
      "name": "JM DIGITAL",
      "phone": "0606-450118",
      "website": "https://jaime-digital.com",
      "emails": [],
      "location": "fes"
    },
    {
      "name": "WeProcess",
      "phone": "0637-494362",
      "website": "https://we-process.com",
      "emails": [
        "info@we-process.com"
      ],
      "location": "fes"
    },
    {
      "name": "Développeur web freelance",
      "phone": "0677-201041",
      "website": "https://yassinezine.com",
      "emails": [],
      "location": "fes"
    },
    {
      "name": "DIGITAL VALLEY",
      "phone": "0620-693022",
      "website": "https://digitalvalley.ma",
      "emails": [],
      "location": "fes"
    },
    {
      "name": "TELCO DEV",
      "phone": "",
      "website": "",
      "emails": [],
      "location": "Fes Shore, route sidi hrazem, B0, Fès 30040"
    },
    {
      "name": "CAD DIGITAL AGENCY",
      "phone": "0661-678047",
      "website": "https://caddigitalagency.com",
      "emails": [
        "contact@caddigitalagency.ma",
        "support@ito.com",
        "contact@caddigitalagency.com"
      ],
      "location": "ETG5 Bureau 33, CAD DIGITAL AGENCY, 75 Rue Al Hoceima, Fès 30000"
    },
    {
      "name": "Ecole Polytechnique des Génies ",
      "phone": "05356-21865",
      "website": "https://epg.ma",
      "emails": [
        "contact@epg.ma"
      ],
      "location": "fes"
    },
    {
      "name": "Fès",
      "phone": "",
      "website": "https://communedefes.ma",
      "emails": [],
      "location": "fes"
    },
    {
      "name": "Ecole Francophone d'Informatique et Management",
      "phone": "0667-829173",
      "website": "http://efrim-fes.com",
      "emails": [
        "contact@efrim-fes.com",
        "efrimfes@gmail.com"
      ],
      "location": "App N 2, 55 Rue Assilah, Av. Mohammed Zerktouni, Fès 30000"
    },
    {
      "name": "R-N MÉDIA لتقديم الخدمات الالكترونية",
      "phone": "0656-301075",
      "website": "",
      "emails": [],
      "location": "fes"
    },
    {
      "name": "International Digital Academy",
      "phone": "0635-352965",
      "website": "https://www.coursesida.com",
      "emails": [],
      "location": "fes"
    },
    {
      "name": "Ben Art Studio",
      "phone": "0707-079708",
      "website": "https://benartstudio.com",
      "emails": [
        "contact@benartstudio.com"
      ],
      "location": "fes"
    },
    {
      "name": "LAMARKETCOM DIGITAL AGENCY",
      "phone": "0532-128960",
      "website": "https://www.lamarketcom.com",
      "emails": [],
      "location": "6 ème étage, Immeuble EL Youbiya, Ave Allal Ben Abdellah, Fès 30050"
    },
    {
      "name": "Time To Fame",
      "phone": "0665-953229",
      "website": "https://timetofame.com",
      "emails": [
        "contact@timetofame.com"
      ],
      "location": "fes"
    },
    {
      "name": "Digital Concept Maroc",
      "phone": "0673-920595",
      "website": "https://digitalconcept.ma",
      "emails": [],
      "location": "Etage 2 Bureau 15, Digital Concept Maroc, Espace bureau Bel air a coté Clinique rais, Fès 30000"
    },
    {
      "name": "MEKS Digital",
      "phone": "",
      "website": "https://meks.ma",
      "emails": [],
      "location": "fes"
    },
    {
      "name": "Creative Circle Morocco",
      "phone": "0660-897703",
      "website": "",
      "emails": [],
      "location": "Atlas, Résidence Dakhla, 34 av Tétouan, Fès 30010"
    },
    {
      "name": "Sama Rooftop Fes",
      "phone": "0718-485690",
      "website": "https://samarooftop.com",
      "emails": [],
      "location": "94, Sama Rooftop Fes, 96 Rue Bouajjara, Fes 30000"
    },
    {
      "name": "Restaurant Palais Fes Yahya rooftop",
      "phone": "0623-870165",
      "website": "",
      "emails": [],
      "location": "Restaurant Palais Fes Yahya rooftop, N 74 Rass Jnan, Derb Majmaa Doula, Fes 30000"
    },
    {
      "name": "Digiben",
      "phone": "0661-463956",
      "website": "",
      "emails": [],
      "location": "champs de course, Avenue prince héritier, espace des experts, 4e étage N 45"
    },
    {
      "name": "S.I.M Service d'Impression et Marketing",
      "phone": "0622-711819",
      "website": "",
      "emails": [],
      "location": "fes"
    },
    {
      "name": "Am creative",
      "phone": "0661-864406",
      "website": "https://amcreative.ma",
      "emails": [
        "contact@amcreative.ma"
      ],
      "location": "Am creative, N1 talmsani, rue Omar benjlloun, Fès 30100"
    },
    {
      "name": "MARKETING CONFORT",
      "phone": "0612-140666",
      "website": "https://marketingconfort.com",
      "emails": [
        "belmaitinabil@gmail.com",
        "contact@marketingconfort.com"
      ],
      "location": "3eme etage, MARKETING CONFORT, atlas n 22 lotissement elidrissia immeuble el andalouss, Fès 30000"
    },
    {
      "name": "Digialla",
      "phone": "",
      "website": "",
      "emails": [],
      "location": "fes"
    },
    {
      "name": "PUSH - Agence Digitale Maroc",
      "phone": "",
      "website": "https://agencepush.com",
      "emails": [],
      "location": "fes"
    },
    {
      "name": "Bab Sahra Fes -Cooking Class Riad",
      "phone": "05356-33209",
      "website": "https://fezcookingschool.com",
      "emails": [
        "contact@fezcookingschool.com"
      ],
      "location": "Fez view cooking with Grandmother, 16 derb Moulay ismail, talaa sghira, Fès 30100"
    },
    {
      "name": "Media Hero",
      "phone": "0679-850144",
      "website": "",
      "emails": [],
      "location": "fes"
    },
    {
      "name": "AYMD Agency",
      "phone": "0644-334136",
      "website": "https://aymdagency.com",
      "emails": [
        "contact@aymdagency.com"
      ],
      "location": "2ème étage, AYMD Agency, Bureaux wilaya, n"
    },
    {
      "name": "Voxig Digital agency",
      "phone": "0614-168306",
      "website": "",
      "emails": [],
      "location": "etg 4 appt 12, Voxig Digital agency, 18 Rue tanger sidi brahim, Fes 30000"
    },
    {
      "name": "GetViral agency",
      "phone": "0621-002922",
      "website": "",
      "emails": [],
      "location": "5eme étage, Immeuble Moulay Slimane, bureau 25 Ave St Louis, Fès 30000"
    },
    {
      "name": "DigiHook",
      "phone": "0714-308391",
      "website": "https://digihook.ma",
      "emails": [],
      "location": "30000SECTEUR 0005, DigiHook, 4 RUE LALLA FATIM ZAHRA VN ETG 2 BUREAU 9, Fes 30000"
    },
    {
      "name": "مقاطعة أكدال فاس",
      "phone": "05356-23452",
      "website": "https://agdal.fes.ma",
      "emails": [
        "communedefes@fes.ma",
        "secretairegeneral@live.fr"
      ],
      "location": "fes"
    },
    {
      "name": "Maroc Generation Agency Fes",
      "phone": "",
      "website": "",
      "emails": [],
      "location": "rue brazil, RES Al Fatiha N 79 , Imm A rez de chaussée Av moulay rachid, route de sefroui"
    }
  ]
}